[{"county_name":"Orange","description":null,"feat_class":"Populated Place","feature_id":"2304","fips_class":"C1","fips_county_cd":"95","full_county_name":"Orange County","link_title":null,"url":"http:\/\/www.cityofbelleislefl.org\/","name":"Belle Isle","primary_latitude":"28.45","primary_longitude":"-81.35","state_abbreviation":"FL","state_name":"Florida"},{"county_name":"Pinellas","description":null,"feat_class":"Populated Place","feature_id":"2305","fips_class":"C1","fips_county_cd":"103","full_county_name":"Pinellas County","link_title":null,"url":"http:\/\/www.townofbelleair.com\/","name":"Belleair","primary_latitude":"27.93","primary_longitude":"-82.8","state_abbreviation":"FL","state_name":"Florida"},{"county_name":"Pinellas","description":null,"feat_class":"Populated Place","feature_id":"2306","fips_class":"C1","fips_county_cd":"103","full_county_name":"Pinellas County","link_title":null,"url":"http:\/\/www.cityofbelleairbeach.com\/","name":"Belleair Beach","primary_latitude":"27.92","primary_longitude":"-82.84","state_abbreviation":"FL","state_name":"Florida"},{"county_name":"Broward","description":null,"feat_class":"Populated Place","feature_id":"2562","fips_class":"C1","fips_county_cd":"11","full_county_name":"Broward County","link_title":null,"url":"http:\/\/www.oaklandparkfl.org\/","name":"Oakland Park","primary_latitude":"26.17","primary_longitude":"-80.13","state_abbreviation":"FL","state_name":"Florida"},{"county_name":"Pinellas","description":null,"feat_class":"Populated Place","feature_id":"2307","fips_class":"C1","fips_county_cd":"103","full_county_name":"Pinellas County","link_title":null,"url":"http:\/\/www.belleairbluffs.org\/","name":"Belleair Bluffs","primary_latitude":"27.92","primary_longitude":"-82.81","state_abbreviation":"FL","state_name":"Florida"},{"county_name":"Marion","description":null,"feat_class":"Populated Place","feature_id":"2563","fips_class":"C1","fips_county_cd":"83","full_county_name":"Marion County","link_title":null,"url":"http:\/\/www.ocalafl.org\/","name":"Ocala","primary_latitude":"29.18","primary_longitude":"-82.14","state_abbreviation":"FL","state_name":"Florida"},{"county_name":"Palm Beach","description":null,"feat_class":"Populated Place","feature_id":"2565","fips_class":"C1","fips_county_cd":"99","full_county_name":"Palm Beach County","link_title":null,"url":"http:\/\/www.oceanridgeflorida.com\/","name":"Ocean Ridge","primary_latitude":"26.52","primary_longitude":"-80.04","state_abbreviation":"FL","state_name":"Florida"},{"county_name":"Orange","description":null,"feat_class":"Populated Place","feature_id":"2566","fips_class":"C1","fips_county_cd":"95","full_county_name":"Orange County","link_title":null,"url":"http:\/\/www.ocoee.org\/","name":"Ocoee","primary_latitude":"28.56","primary_longitude":"-81.54","state_abbreviation":"FL","state_name":"Florida"},{"county_name":"Okeechobee","description":null,"feat_class":"Populated Place","feature_id":"2567","fips_class":"C1","fips_county_cd":"93","full_county_name":"Okeechobee County","link_title":null,"url":"http:\/\/www.cityofokeechobee.com\/","name":"Okeechobee","primary_latitude":"27.24","primary_longitude":"-80.82","state_abbreviation":"FL","state_name":"Florida"},{"county_name":"Pinellas","description":null,"feat_class":"Populated Place","feature_id":"2568","fips_class":"C1","fips_county_cd":"103","full_county_name":"Pinellas County","link_title":null,"url":"http:\/\/www.ci.oldsmar.fl.us\/","name":"Oldsmar","primary_latitude":"28.03","primary_longitude":"-82.66","state_abbreviation":"FL","state_name":"Florida"},{"county_name":"Palm Beach","description":null,"feat_class":"Populated Place","feature_id":"2313","fips_class":"C1","fips_county_cd":"99","full_county_name":"Palm Beach County","link_title":null,"url":"http:\/\/www.ci.boca-raton.fl.us\/","name":"Boca Raton","primary_latitude":"26.35","primary_longitude":"-80.08","state_abbreviation":"FL","state_name":"Florida"},{"county_name":"Lee","description":null,"feat_class":"Populated Place","feature_id":"2315","fips_class":"C1","fips_county_cd":"71","full_county_name":"Lee County","link_title":null,"url":"http:\/\/www.cityofbonitasprings.org\/","name":"Bonita Springs","primary_latitude":"26.33","primary_longitude":"-81.77","state_abbreviation":"FL","state_name":"Florida"},{"county_name":"Palm Beach","description":null,"feat_class":"Populated Place","feature_id":"2317","fips_class":"C1","fips_county_cd":"99","full_county_name":"Palm Beach County","link_title":null,"url":"http:\/\/www.ci.boynton-beach.fl.us\/","name":"Boynton Beach","primary_latitude":"26.52","primary_longitude":"-80.06","state_abbreviation":"FL","state_name":"Florida"},{"county_name":"Orange","description":null,"feat_class":"Populated Place","feature_id":"2573","fips_class":"C1","fips_county_cd":"95","full_county_name":"Orange County","link_title":null,"url":"http:\/\/www.cityoforlando.net\/","name":"Orlando","primary_latitude":"28.53","primary_longitude":"-81.37","state_abbreviation":"FL","state_name":"Florida"},{"county_name":"Manatee","description":null,"feat_class":"Populated Place","feature_id":"2318","fips_class":"C1","fips_county_cd":"81","full_county_name":"Manatee County","link_title":null,"url":"http:\/\/www.cityofbradenton.com\/","name":"Bradenton","primary_latitude":"27.49","primary_longitude":"-82.57","state_abbreviation":"FL","state_name":"Florida"},{"county_name":"Volusia","description":null,"feat_class":"Populated Place","feature_id":"2574","fips_class":"C1","fips_county_cd":"127","full_county_name":"Volusia County","link_title":null,"url":"http:\/\/www.ormondbeach.org\/","name":"Ormond Beach","primary_latitude":"29.28","primary_longitude":"-81.05","state_abbreviation":"FL","state_name":"Florida"},{"county_name":"Seminole","description":null,"feat_class":"Populated Place","feature_id":"2576","fips_class":"C1","fips_county_cd":"117","full_county_name":"Seminole County","link_title":null,"url":"http:\/\/www.cityofoviedo.net\/","name":"Oviedo","primary_latitude":"28.66","primary_longitude":"-81.2","state_abbreviation":"FL","state_name":"Florida"},{"county_name":"Putnam","description":null,"feat_class":"Populated Place","feature_id":"2578","fips_class":"C1","fips_county_cd":"107","full_county_name":"Putnam County","link_title":null,"url":"http:\/\/palatka-fl.gov\/","name":"Palatka","primary_latitude":"29.64","primary_longitude":"-81.63","state_abbreviation":"FL","state_name":"Florida"},{"county_name":"Brevard","description":null,"feat_class":"Populated Place","feature_id":"2579","fips_class":"C1","fips_county_cd":"9","full_county_name":"Brevard County","link_title":null,"url":"http:\/\/www.palmbayflorida.org\/","name":"Palm Bay","primary_latitude":"28.03","primary_longitude":"-80.58","state_abbreviation":"FL","state_name":"Florida"},{"county_name":"Palm Beach","description":null,"feat_class":"Populated Place","feature_id":"2580","fips_class":"C1","fips_county_cd":"99","full_county_name":"Palm Beach County","link_title":null,"url":"http:\/\/palmbeach.govoffice.com\/","name":"Palm Beach","primary_latitude":"26.7","primary_longitude":"-80.03","state_abbreviation":"FL","state_name":"Florida"},{"county_name":"Hernando","description":null,"feat_class":"Populated Place","feature_id":"2325","fips_class":"C1","fips_county_cd":"53","full_county_name":"Hernando County","link_title":null,"url":"http:\/\/www.ci.brooksville.fl.us\/","name":"Brooksville","primary_latitude":"28.55","primary_longitude":"-82.38","state_abbreviation":"FL","state_name":"Florida"},{"county_name":"Palm Beach","description":null,"feat_class":"Populated Place","feature_id":"2581","fips_class":"C1","fips_county_cd":"99","full_county_name":"Palm Beach County","link_title":null,"url":"http:\/\/www.pbgfl.com\/","name":"Palm Beach Gardens","primary_latitude":"26.82","primary_longitude":"-80.13","state_abbreviation":"FL","state_name":"Florida"},{"county_name":"Palm Beach","description":null,"feat_class":"Populated Place","feature_id":"2582","fips_class":"C1","fips_county_cd":"99","full_county_name":"Palm Beach County","link_title":null,"url":"http:\/\/townhall.ci.palm-beach-shores.fl.us\/","name":"Palm Beach Shores","primary_latitude":"26.77","primary_longitude":"-80.03","state_abbreviation":"FL","state_name":"Florida"},{"county_name":"Flagler","description":null,"feat_class":"Populated Place","feature_id":"2583","fips_class":"C1","fips_county_cd":"35","full_county_name":"Flagler County","link_title":null,"url":"http:\/\/www.ci.palm-coast.fl.us\/","name":"Palm Coast","primary_latitude":"29.58","primary_longitude":"-81.2","state_abbreviation":"FL","state_name":"Florida"},{"county_name":"Bay","description":null,"feat_class":"Populated Place","feature_id":"2329","fips_class":"C1","fips_county_cd":"5","full_county_name":"Bay County","link_title":null,"url":"http:\/\/www.cityofcallaway.com\/","name":"Callaway","primary_latitude":"30.15","primary_longitude":"-85.56","state_abbreviation":"FL","state_name":"Florida"},{"county_name":"Palm Beach","description":null,"feat_class":"Populated Place","feature_id":"2585","fips_class":"C1","fips_county_cd":"99","full_county_name":"Palm Beach County","link_title":null,"url":"http:\/\/www.villageofpalmsprings.org\/","name":"Palm Springs","primary_latitude":"26.63","primary_longitude":"-80.09","state_abbreviation":"FL","state_name":"Florida"},{"county_name":"Manatee","description":null,"feat_class":"Populated Place","feature_id":"2586","fips_class":"C1","fips_county_cd":"81","full_county_name":"Manatee County","link_title":null,"url":"http:\/\/www.palmettofl.org\/","name":"Palmetto","primary_latitude":"27.52","primary_longitude":"-82.57","state_abbreviation":"FL","state_name":"Florida"},{"county_name":"Brevard","description":null,"feat_class":"Populated Place","feature_id":"2331","fips_class":"C1","fips_county_cd":"9","full_county_name":"Brevard County","link_title":null,"url":"http:\/\/www.cityofcapecanaveral.org\/","name":"Cape Canaveral","primary_latitude":"28.4","primary_longitude":"-80.6","state_abbreviation":"FL","state_name":"Florida"},{"county_name":"Lee","description":null,"feat_class":"Populated Place","feature_id":"2332","fips_class":"C1","fips_county_cd":"71","full_county_name":"Lee County","link_title":null,"url":"http:\/\/www.capecoral.net\/","name":"Cape Coral","primary_latitude":"26.56","primary_longitude":"-81.94","state_abbreviation":"FL","state_name":"Florida"},{"county_name":"Bay","description":null,"feat_class":"Populated Place","feature_id":"2588","fips_class":"C1","fips_county_cd":"5","full_county_name":"Bay County","link_title":null,"url":"http:\/\/www.pcgov.org\/","name":"Panama City","primary_latitude":"30.15","primary_longitude":"-85.66","state_abbreviation":"FL","state_name":"Florida"},{"county_name":"Bay","description":null,"feat_class":"Populated Place","feature_id":"2589","fips_class":"C1","fips_county_cd":"5","full_county_name":"Bay County","link_title":null,"url":"http:\/\/www.pcbgov.com\/","name":"Panama City Beach","primary_latitude":"30.17","primary_longitude":"-85.8","state_abbreviation":"FL","state_name":"Florida"},{"county_name":"Seminole","description":null,"feat_class":"Populated Place","feature_id":"2335","fips_class":"C1","fips_county_cd":"117","full_county_name":"Seminole County","link_title":null,"url":"http:\/\/www.casselberry.org\/","name":"Casselberry","primary_latitude":"28.67","primary_longitude":"-81.32","state_abbreviation":"FL","state_name":"Florida"},{"county_name":"Broward","description":null,"feat_class":"Populated Place","feature_id":"2591","fips_class":"C1","fips_county_cd":"11","full_county_name":"Broward County","link_title":null,"url":"http:\/\/www.cityofparkland.org\/","name":"Parkland","primary_latitude":"26.31","primary_longitude":"-80.23","state_abbreviation":"FL","state_name":"Florida"},{"county_name":"Broward","description":null,"feat_class":"Populated Place","feature_id":"2594","fips_class":"C1","fips_county_cd":"11","full_county_name":"Broward County","link_title":null,"url":"http:\/\/www.ppines.com\/","name":"Pembroke Pines","primary_latitude":"26","primary_longitude":"-80.22","state_abbreviation":"FL","state_name":"Florida"},{"county_name":"Escambia","description":null,"feat_class":"Populated Place","feature_id":"2596","fips_class":"C1","fips_county_cd":"33","full_county_name":"Escambia County","link_title":null,"url":"http:\/\/www.ci.pensacola.fl.us\/","name":"Pensacola","primary_latitude":"30.42","primary_longitude":"-87.21","state_abbreviation":"FL","state_name":"Florida"},{"county_name":"Washington","description":null,"feat_class":"Populated Place","feature_id":"2342","fips_class":"C1","fips_county_cd":"133","full_county_name":"Washington County","link_title":null,"url":"http:\/\/www.cityofchipley.com\/","name":"Chipley","primary_latitude":"30.78","primary_longitude":"-85.53","state_abbreviation":"FL","state_name":"Florida"},{"county_name":"Okaloosa","description":null,"feat_class":"Populated Place","feature_id":"2343","fips_class":"C1","fips_county_cd":"91","full_county_name":"Okaloosa County","link_title":null,"url":"http:\/\/www.cincobayou.com\/","name":"Cinco Bayou","primary_latitude":"30.42","primary_longitude":"-86.6","state_abbreviation":"FL","state_name":"Florida"},{"county_name":"Miami-Dade","description":null,"feat_class":"Populated Place","feature_id":"2599","fips_class":"C1","fips_county_cd":"86","full_county_name":"Miami-Dade County","link_title":null,"url":"http:\/\/www.pinecrest-fl.gov\/","name":"Pinecrest","primary_latitude":"25.66","primary_longitude":"-80.3","state_abbreviation":"FL","state_name":"Florida"},{"county_name":"Pinellas","description":null,"feat_class":"Populated Place","feature_id":"2344","fips_class":"C1","fips_county_cd":"103","full_county_name":"Pinellas County","link_title":null,"url":"http:\/\/www.clearwater-fl.com\/","name":"Clearwater","primary_latitude":"27.96","primary_longitude":"-82.8","state_abbreviation":"FL","state_name":"Florida"},{"county_name":"Pinellas","description":null,"feat_class":"Populated Place","feature_id":"2600","fips_class":"C1","fips_county_cd":"103","full_county_name":"Pinellas County","link_title":null,"url":"http:\/\/www.pinellas-park.com\/","name":"Pinellas Park","primary_latitude":"27.84","primary_longitude":"-82.69","state_abbreviation":"FL","state_name":"Florida"},{"county_name":"Hillsborough","description":null,"feat_class":"Populated Place","feature_id":"2601","fips_class":"C1","fips_county_cd":"57","full_county_name":"Hillsborough County","link_title":null,"url":"http:\/\/www.plantcitygov.com\/","name":"Plant City","primary_latitude":"28.01","primary_longitude":"-82.11","state_abbreviation":"FL","state_name":"Florida"},{"county_name":"Hendry","description":null,"feat_class":"Populated Place","feature_id":"2346","fips_class":"C1","fips_county_cd":"51","full_county_name":"Hendry County","link_title":null,"url":"http:\/\/www.cityofclewiston.org\/","name":"Clewiston","primary_latitude":"26.75","primary_longitude":"-80.93","state_abbreviation":"FL","state_name":"Florida"},{"county_name":"Broward","description":null,"feat_class":"Populated Place","feature_id":"2602","fips_class":"C1","fips_county_cd":"11","full_county_name":"Broward County","link_title":null,"url":"http:\/\/www.plantation.org\/","name":"Plantation","primary_latitude":"26.12","primary_longitude":"-80.23","state_abbreviation":"FL","state_name":"Florida"},{"county_name":"Polk","description":null,"feat_class":"Populated Place","feature_id":"2603","fips_class":"C1","fips_county_cd":"105","full_county_name":"Polk County","link_title":null,"url":"http:\/\/www.mypolkcity.org\/","name":"Polk City","primary_latitude":"28.18","primary_longitude":"-81.82","state_abbreviation":"FL","state_name":"Florida"},{"county_name":"Brevard","description":null,"feat_class":"Populated Place","feature_id":"2348","fips_class":"C1","fips_county_cd":"9","full_county_name":"Brevard County","link_title":null,"url":"http:\/\/www.cocoafl.org\/","name":"Cocoa","primary_latitude":"28.38","primary_longitude":"-80.74","state_abbreviation":"FL","state_name":"Florida"},{"county_name":"Brevard","description":null,"feat_class":"Populated Place","feature_id":"2349","fips_class":"C1","fips_county_cd":"9","full_county_name":"Brevard County","link_title":null,"url":"http:\/\/www.cityofcocoabeach.com\/","name":"Cocoa Beach","primary_latitude":"28.32","primary_longitude":"-80.6","state_abbreviation":"FL","state_name":"Florida"},{"county_name":"Broward","description":null,"feat_class":"Populated Place","feature_id":"2605","fips_class":"C1","fips_county_cd":"11","full_county_name":"Broward County","link_title":null,"url":"http:\/\/www.mypompanobeach.org\/","name":"Pompano Beach","primary_latitude":"26.23","primary_longitude":"-80.12","state_abbreviation":"FL","state_name":"Florida"},{"county_name":"Broward","description":null,"feat_class":"Populated Place","feature_id":"2350","fips_class":"C1","fips_county_cd":"11","full_county_name":"Broward County","link_title":null,"url":"http:\/\/www.creekgov.net\/","name":"Coconut Creek","primary_latitude":"26.25","primary_longitude":"-80.17","state_abbreviation":"FL","state_name":"Florida"},{"county_name":"Volusia","description":null,"feat_class":"Populated Place","feature_id":"2607","fips_class":"C1","fips_county_cd":"127","full_county_name":"Volusia County","link_title":null,"url":"http:\/\/www.ponce-inlet.org\/","name":"Ponce Inlet","primary_latitude":"29.09","primary_longitude":"-80.93","state_abbreviation":"FL","state_name":"Florida"},{"county_name":"Broward","description":null,"feat_class":"Populated Place","feature_id":"2352","fips_class":"C1","fips_county_cd":"11","full_county_name":"Broward County","link_title":null,"url":"http:\/\/www.coopercityfl.org\/","name":"Cooper City","primary_latitude":"26.05","primary_longitude":"-80.27","state_abbreviation":"FL","state_name":"Florida"},{"county_name":"Volusia","description":null,"feat_class":"Populated Place","feature_id":"2608","fips_class":"C1","fips_county_cd":"127","full_county_name":"Volusia County","link_title":null,"url":"http:\/\/www.port-orange.org\/","name":"Port Orange","primary_latitude":"29.13","primary_longitude":"-80.99","state_abbreviation":"FL","state_name":"Florida"},{"county_name":"Miami-Dade","description":null,"feat_class":"Populated Place","feature_id":"2353","fips_class":"C1","fips_county_cd":"86","full_county_name":"Miami-Dade County","link_title":null,"url":"http:\/\/www.coralgables.com\/","name":"Coral Gables","primary_latitude":"25.72","primary_longitude":"-80.26","state_abbreviation":"FL","state_name":"Florida"},{"county_name":"Broward","description":null,"feat_class":"Populated Place","feature_id":"2354","fips_class":"C1","fips_county_cd":"11","full_county_name":"Broward County","link_title":null,"url":"http:\/\/www.coralsprings.org\/","name":"Coral Springs","primary_latitude":"26.27","primary_longitude":"-80.27","state_abbreviation":"FL","state_name":"Florida"},{"county_name":"St. Lucie","description":null,"feat_class":"Populated Place","feature_id":"2611","fips_class":"C1","fips_county_cd":"111","full_county_name":"St. Lucie County","link_title":null,"url":"http:\/\/www.cityofpsl.com\/","name":"Port Saint Lucie","primary_latitude":"27.29","primary_longitude":"-80.35","state_abbreviation":"FL","state_name":"Florida"},{"county_name":"Charlotte","description":null,"feat_class":"Populated Place","feature_id":"2612","fips_class":"C1","fips_county_cd":"15","full_county_name":"Charlotte County","link_title":null,"url":"http:\/\/www.ci.punta-gorda.fl.us\/","name":"Punta Gorda","primary_latitude":"26.92","primary_longitude":"-82.04","state_abbreviation":"FL","state_name":"Florida"},{"county_name":"Gadsden","description":null,"feat_class":"Populated Place","feature_id":"2613","fips_class":"C1","fips_county_cd":"39","full_county_name":"Gadsden County","link_title":null,"url":"http:\/\/www.myquincy.net\/","name":"Quincy","primary_latitude":"30.58","primary_longitude":"-84.58","state_abbreviation":"FL","state_name":"Florida"},{"county_name":"Citrus","description":null,"feat_class":"Populated Place","feature_id":"2359","fips_class":"C1","fips_county_cd":"17","full_county_name":"Citrus County","link_title":null,"url":"http:\/\/www.crystal-river.com\/","name":"Crystal River","primary_latitude":"28.9","primary_longitude":"-82.59","state_abbreviation":"FL","state_name":"Florida"},{"county_name":"Pinellas","description":null,"feat_class":"Populated Place","feature_id":"2616","fips_class":"C1","fips_county_cd":"103","full_county_name":"Pinellas County","link_title":null,"url":"http:\/\/www.townofredingtonbeach.com\/","name":"Redington Beach","primary_latitude":"27.8","primary_longitude":"-82.81","state_abbreviation":"FL","state_name":"Florida"},{"county_name":"Pasco","description":null,"feat_class":"Populated Place","feature_id":"2361","fips_class":"C1","fips_county_cd":"101","full_county_name":"Pasco County","link_title":null,"url":"http:\/\/www.dadecityfl.com\/","name":"Dade City","primary_latitude":"28.36","primary_longitude":"-82.19","state_abbreviation":"FL","state_name":"Florida"},{"county_name":"Pinellas","description":null,"feat_class":"Populated Place","feature_id":"2617","fips_class":"C1","fips_county_cd":"103","full_county_name":"Pinellas County","link_title":null,"url":"http:\/\/townofredingtonshores.com\/","name":"Redington Shores","primary_latitude":"27.82","primary_longitude":"-82.82","state_abbreviation":"FL","state_name":"Florida"},{"county_name":"Broward","description":null,"feat_class":"Populated Place","feature_id":"2362","fips_class":"C1","fips_county_cd":"11","full_county_name":"Broward County","link_title":null,"url":"http:\/\/www.ci.dania-beach.fl.us\/","name":"Dania Beach","primary_latitude":"26.05","primary_longitude":"-80.14","state_abbreviation":"FL","state_name":"Florida"},{"county_name":"Palm Beach","description":null,"feat_class":"Populated Place","feature_id":"2618","fips_class":"C1","fips_county_cd":"99","full_county_name":"Palm Beach County","link_title":null,"url":"http:\/\/www.rivierabch.com\/","name":"Riviera Beach","primary_latitude":"26.77","primary_longitude":"-80.05","state_abbreviation":"FL","state_name":"Florida"},{"county_name":"Brevard","description":null,"feat_class":"Populated Place","feature_id":"2619","fips_class":"C1","fips_county_cd":"9","full_county_name":"Brevard County","link_title":null,"url":"http:\/\/www.cityofrockledge.org\/","name":"Rockledge","primary_latitude":"28.35","primary_longitude":"-80.72","state_abbreviation":"FL","state_name":"Florida"},{"county_name":"Broward","description":null,"feat_class":"Populated Place","feature_id":"2364","fips_class":"C1","fips_county_cd":"11","full_county_name":"Broward County","link_title":null,"url":"http:\/\/www.davie-fl.gov\/","name":"Davie","primary_latitude":"26.06","primary_longitude":"-80.23","state_abbreviation":"FL","state_name":"Florida"},{"county_name":"Palm Beach","description":null,"feat_class":"Populated Place","feature_id":"2620","fips_class":"C1","fips_county_cd":"99","full_county_name":"Palm Beach County","link_title":null,"url":"http:\/\/www.royalpalmbeach.com\/","name":"Royal Palm Beach","primary_latitude":"26.7","primary_longitude":"-80.23","state_abbreviation":"FL","state_name":"Florida"},{"county_name":"Volusia","description":null,"feat_class":"Populated Place","feature_id":"2365","fips_class":"C1","fips_county_cd":"127","full_county_name":"Volusia County","link_title":null,"url":"http:\/\/www.ci.daytona-beach.fl.us\/","name":"Daytona Beach","primary_latitude":"29.21","primary_longitude":"-81.02","state_abbreviation":"FL","state_name":"Florida"},{"county_name":"Pinellas","description":null,"feat_class":"Populated Place","feature_id":"2621","fips_class":"C1","fips_county_cd":"103","full_county_name":"Pinellas County","link_title":null,"url":"http:\/\/www.cityofsafetyharbor.com\/","name":"Safety Harbor","primary_latitude":"27.99","primary_longitude":"-82.69","state_abbreviation":"FL","state_name":"Florida"},{"county_name":"Volusia","description":null,"feat_class":"Populated Place","feature_id":"2366","fips_class":"C1","fips_county_cd":"127","full_county_name":"Volusia County","link_title":null,"url":"http:\/\/www.dbshores.org\/","name":"Daytona Beach Shores","primary_latitude":"29.17","primary_longitude":"-80.98","state_abbreviation":"FL","state_name":"Florida"},{"county_name":"Volusia","description":null,"feat_class":"Populated Place","feature_id":"2368","fips_class":"C1","fips_county_cd":"127","full_county_name":"Volusia County","link_title":null,"url":"http:\/\/www.debary.org\/","name":"DeBary","primary_latitude":"28.88","primary_longitude":"-81.3","state_abbreviation":"FL","state_name":"Florida"},{"county_name":"Broward","description":null,"feat_class":"Populated Place","feature_id":"2369","fips_class":"C1","fips_county_cd":"11","full_county_name":"Broward County","link_title":null,"url":"http:\/\/www.deerfield-beach.com\/","name":"Deerfield Beach","primary_latitude":"26.31","primary_longitude":"-80.09","state_abbreviation":"FL","state_name":"Florida"},{"county_name":"Volusia","description":null,"feat_class":"Populated Place","feature_id":"2370","fips_class":"C1","fips_county_cd":"127","full_county_name":"Volusia County","link_title":null,"url":"http:\/\/www.deland.org\/","name":"De Land","primary_latitude":"29.02","primary_longitude":"-81.3","state_abbreviation":"FL","state_name":"Florida"},{"county_name":"Palm Beach","description":null,"feat_class":"Populated Place","feature_id":"2371","fips_class":"C1","fips_county_cd":"99","full_county_name":"Palm Beach County","link_title":null,"url":"http:\/\/www.mydelraybeach.com\/","name":"Delray Beach","primary_latitude":"26.46","primary_longitude":"-80.07","state_abbreviation":"FL","state_name":"Florida"},{"county_name":"Volusia","description":null,"feat_class":"Populated Place","feature_id":"2372","fips_class":"C1","fips_county_cd":"127","full_county_name":"Volusia County","link_title":null,"url":"http:\/\/www.deltonafl.gov\/","name":"Deltona","primary_latitude":"28.9","primary_longitude":"-81.26","state_abbreviation":"FL","state_name":"Florida"},{"county_name":"Okaloosa","description":null,"feat_class":"Populated Place","feature_id":"2373","fips_class":"C1","fips_county_cd":"91","full_county_name":"Okaloosa County","link_title":null,"url":"http:\/\/www.cityofdestin.com\/","name":"Destin","primary_latitude":"30.39","primary_longitude":"-86.49","state_abbreviation":"FL","state_name":"Florida"},{"county_name":"Seminole","description":null,"feat_class":"Populated Place","feature_id":"2631","fips_class":"C1","fips_county_cd":"117","full_county_name":"Seminole County","link_title":null,"url":"http:\/\/www.ci.sanford.fl.us\/","name":"Sanford","primary_latitude":"28.8","primary_longitude":"-81.27","state_abbreviation":"FL","state_name":"Florida"},{"county_name":"Pinellas","description":null,"feat_class":"Populated Place","feature_id":"2376","fips_class":"C1","fips_county_cd":"103","full_county_name":"Pinellas County","link_title":null,"url":"http:\/\/www.dunedingov.com\/","name":"Dunedin","primary_latitude":"28.01","primary_longitude":"-82.77","state_abbreviation":"FL","state_name":"Florida"},{"county_name":"Lee","description":null,"feat_class":"Populated Place","feature_id":"2632","fips_class":"C1","fips_county_cd":"71","full_county_name":"Lee County","link_title":null,"url":"http:\/\/www.mysanibel.com\/","name":"Sanibel","primary_latitude":"26.44","primary_longitude":"-82.02","state_abbreviation":"FL","state_name":"Florida"},{"county_name":"Marion","description":null,"feat_class":"Populated Place","feature_id":"2377","fips_class":"C1","fips_county_cd":"83","full_county_name":"Marion County","link_title":null,"url":"http:\/\/www.dunnellon.org\/","name":"Dunnellon","primary_latitude":"29.04","primary_longitude":"-82.46","state_abbreviation":"FL","state_name":"Florida"},{"county_name":"Sarasota","description":null,"feat_class":"Populated Place","feature_id":"2633","fips_class":"C1","fips_county_cd":"115","full_county_name":"Sarasota County","link_title":null,"url":"http:\/\/www.sarasotagov.com\/","name":"Sarasota","primary_latitude":"27.33","primary_longitude":"-82.53","state_abbreviation":"FL","state_name":"Florida"},{"county_name":"Polk","description":null,"feat_class":"Populated Place","feature_id":"2378","fips_class":"C1","fips_county_cd":"105","full_county_name":"Polk County","link_title":null,"url":"http:\/\/www.eaglelake-fla.com\/","name":"Eagle Lake","primary_latitude":"27.97","primary_longitude":"-81.75","state_abbreviation":"FL","state_name":"Florida"},{"county_name":"Brevard","description":null,"feat_class":"Populated Place","feature_id":"2634","fips_class":"C1","fips_county_cd":"9","full_county_name":"Brevard County","link_title":null,"url":"http:\/\/www.satellitebeach.org\/","name":"Satellite Beach","primary_latitude":"28.17","primary_longitude":"-80.59","state_abbreviation":"FL","state_name":"Florida"},{"county_name":"Indian River","description":null,"feat_class":"Populated Place","feature_id":"2636","fips_class":"C1","fips_county_cd":"61","full_county_name":"Indian River County","link_title":null,"url":"http:\/\/www.cityofsebastian.org\/","name":"Sebastian","primary_latitude":"27.81","primary_longitude":"-80.47","state_abbreviation":"FL","state_name":"Florida"},{"county_name":"Volusia","description":null,"feat_class":"Populated Place","feature_id":"2381","fips_class":"C1","fips_county_cd":"127","full_county_name":"Volusia County","link_title":null,"url":"http:\/\/www.cityofedgewater.org\/","name":"Edgewater","primary_latitude":"28.98","primary_longitude":"-80.9","state_abbreviation":"FL","state_name":"Florida"},{"county_name":"Orange","description":null,"feat_class":"Populated Place","feature_id":"2382","fips_class":"C1","fips_county_cd":"95","full_county_name":"Orange County","link_title":null,"url":"http:\/\/www.edgewood-fl.gov\/","name":"Edgewood","primary_latitude":"28.48","primary_longitude":"-81.37","state_abbreviation":"FL","state_name":"Florida"},{"county_name":"Okaloosa","description":null,"feat_class":"Populated Place","feature_id":"2640","fips_class":"C1","fips_county_cd":"91","full_county_name":"Okaloosa County","link_title":null,"url":"http:\/\/www.shalimarflorida.org\/","name":"Shalimar","primary_latitude":"30.44","primary_longitude":"-86.57","state_abbreviation":"FL","state_name":"Florida"},{"county_name":"Lake","description":null,"feat_class":"Populated Place","feature_id":"2385","fips_class":"C1","fips_county_cd":"69","full_county_name":"Lake County","link_title":null,"url":"http:\/\/www.eustis.org\/","name":"Eustis","primary_latitude":"28.85","primary_longitude":"-81.68","state_abbreviation":"FL","state_name":"Florida"},{"county_name":"Jackson","description":null,"feat_class":"Populated Place","feature_id":"2641","fips_class":"C1","fips_county_cd":"63","full_county_name":"Jackson County","link_title":null,"url":"http:\/\/www.sneadsfl.com\/","name":"Sneads","primary_latitude":"30.7","primary_longitude":"-84.92","state_abbreviation":"FL","state_name":"Florida"},{"county_name":"Volusia","description":null,"feat_class":"Populated Place","feature_id":"2644","fips_class":"C1","fips_county_cd":"127","full_county_name":"Volusia County","link_title":null,"url":"http:\/\/www.southdaytona.org\/","name":"South Daytona","primary_latitude":"29.16","primary_longitude":"-81","state_abbreviation":"FL","state_name":"Florida"},{"county_name":"Miami-Dade","description":null,"feat_class":"Populated Place","feature_id":"2645","fips_class":"C1","fips_county_cd":"86","full_county_name":"Miami-Dade County","link_title":null,"url":"http:\/\/www.cityofsouthmiami.net\/","name":"South Miami","primary_latitude":"25.7","primary_longitude":"-80.29","state_abbreviation":"FL","state_name":"Florida"},{"county_name":"Nassau","description":null,"feat_class":"Populated Place","feature_id":"2390","fips_class":"C1","fips_county_cd":"89","full_county_name":"Nassau County","link_title":null,"url":"http:\/\/www.fbfl.us\/","name":"Fernandina Beach","primary_latitude":"30.66","primary_longitude":"-81.46","state_abbreviation":"FL","state_name":"Florida"},{"county_name":"Flagler","description":null,"feat_class":"Populated Place","feature_id":"2391","fips_class":"C1","fips_county_cd":"35","full_county_name":"Flagler County","link_title":null,"url":"http:\/\/www.cityofflaglerbeach.com\/","name":"Flagler Beach","primary_latitude":"29.47","primary_longitude":"-81.12","state_abbreviation":"FL","state_name":"Florida"},{"county_name":"Pinellas","description":null,"feat_class":"Populated Place","feature_id":"2647","fips_class":"C1","fips_county_cd":"103","full_county_name":"Pinellas County","link_title":null,"url":"http:\/\/ci.south-pasadena.fl.us\/","name":"South Pasadena","primary_latitude":"27.75","primary_longitude":"-82.73","state_abbreviation":"FL","state_name":"Florida"},{"county_name":"Broward","description":null,"feat_class":"Populated Place","feature_id":"2648","fips_class":"C1","fips_county_cd":"11","full_county_name":"Broward County","link_title":null,"url":"http:\/\/www.southwestranches.org\/","name":"Southwest Ranches","primary_latitude":"26.05","primary_longitude":"-80.33","state_abbreviation":"FL","state_name":"Florida"},{"county_name":"Miami-Dade","description":null,"feat_class":"Populated Place","feature_id":"2393","fips_class":"C1","fips_county_cd":"86","full_county_name":"Miami-Dade County","link_title":null,"url":"http:\/\/www.floridacityfl.us\/","name":"Florida City","primary_latitude":"25.44","primary_longitude":"-80.47","state_abbreviation":"FL","state_name":"Florida"},{"county_name":"Bay","description":null,"feat_class":"Populated Place","feature_id":"2649","fips_class":"C1","fips_county_cd":"5","full_county_name":"Bay County","link_title":null,"url":"http:\/\/www.springfieldfl.org\/","name":"Springfield","primary_latitude":"30.15","primary_longitude":"-85.61","state_abbreviation":"FL","state_name":"Florida"},{"county_name":"Broward","description":null,"feat_class":"Populated Place","feature_id":"2394","fips_class":"C1","fips_county_cd":"11","full_county_name":"Broward County","link_title":null,"url":"http:\/\/ci.ftlaud.fl.us\/","name":"Fort Lauderdale","primary_latitude":"26.12","primary_longitude":"-80.14","state_abbreviation":"FL","state_name":"Florida"},{"county_name":"Polk","description":null,"feat_class":"Populated Place","feature_id":"2395","fips_class":"C1","fips_county_cd":"105","full_county_name":"Polk County","link_title":null,"url":"http:\/\/www.cityoffortmeade.com\/","name":"Fort Meade","primary_latitude":"27.75","primary_longitude":"-81.8","state_abbreviation":"FL","state_name":"Florida"},{"county_name":"Martin","description":null,"feat_class":"Populated Place","feature_id":"2651","fips_class":"C1","fips_county_cd":"85","full_county_name":"Martin County","link_title":null,"url":"http:\/\/www.cityofstuart.us\/","name":"Stuart","primary_latitude":"27.19","primary_longitude":"-80.25","state_abbreviation":"FL","state_name":"Florida"},{"county_name":"Lee","description":null,"feat_class":"Populated Place","feature_id":"2396","fips_class":"C1","fips_county_cd":"71","full_county_name":"Lee County","link_title":null,"url":"http:\/\/www.cityftmyers.com\/","name":"Fort Myers","primary_latitude":"26.64","primary_longitude":"-81.87","state_abbreviation":"FL","state_name":"Florida"},{"county_name":"Miami-Dade","description":null,"feat_class":"Populated Place","feature_id":"2652","fips_class":"C1","fips_county_cd":"86","full_county_name":"Miami-Dade County","link_title":null,"url":"http:\/\/www.sibfl.net\/","name":"Sunny Isles Beach","primary_latitude":"25.95","primary_longitude":"-80.12","state_abbreviation":"FL","state_name":"Florida"},{"county_name":"Lee","description":null,"feat_class":"Populated Place","feature_id":"2397","fips_class":"C1","fips_county_cd":"71","full_county_name":"Lee County","link_title":null,"url":"http:\/\/www.fmbeach.org\/","name":"Fort Myers Beach","primary_latitude":"26.45","primary_longitude":"-81.94","state_abbreviation":"FL","state_name":"Florida"},{"county_name":"Broward","description":null,"feat_class":"Populated Place","feature_id":"2653","fips_class":"C1","fips_county_cd":"11","full_county_name":"Broward County","link_title":null,"url":"http:\/\/www.sunrisefl.gov\/","name":"Sunrise","primary_latitude":"26.13","primary_longitude":"-80.11","state_abbreviation":"FL","state_name":"Florida"},{"county_name":"St. Lucie","description":null,"feat_class":"Populated Place","feature_id":"2398","fips_class":"C1","fips_county_cd":"111","full_county_name":"St. Lucie County","link_title":null,"url":"http:\/\/www.ci.fort-pierce.fl.us\/","name":"Fort Pierce","primary_latitude":"27.44","primary_longitude":"-80.32","state_abbreviation":"FL","state_name":"Florida"},{"county_name":"Miami-Dade","description":null,"feat_class":"Populated Place","feature_id":"2654","fips_class":"C1","fips_county_cd":"86","full_county_name":"Miami-Dade County","link_title":null,"url":"http:\/\/www.townofsurfsidefl.gov\/","name":"Surfside","primary_latitude":"25.87","primary_longitude":"-80.12","state_abbreviation":"FL","state_name":"Florida"},{"county_name":"Okaloosa","description":null,"feat_class":"Populated Place","feature_id":"2399","fips_class":"C1","fips_county_cd":"91","full_county_name":"Okaloosa County","link_title":null,"url":"http:\/\/www.fwb.org\/","name":"Fort Walton Beach","primary_latitude":"30.4","primary_longitude":"-86.61","state_abbreviation":"FL","state_name":"Florida"},{"county_name":"Leon","description":null,"feat_class":"Populated Place","feature_id":"2656","fips_class":"C1","fips_county_cd":"73","full_county_name":"Leon County","link_title":null,"url":"http:\/\/www.talgov.com\/","name":"Tallahassee","primary_latitude":"30.43","primary_longitude":"-84.28","state_abbreviation":"FL","state_name":"Florida"},{"county_name":"Broward","description":null,"feat_class":"Populated Place","feature_id":"2657","fips_class":"C1","fips_county_cd":"11","full_county_name":"Broward County","link_title":null,"url":"http:\/\/www.tamarac.org\/","name":"Tamarac","primary_latitude":"26.21","primary_longitude":"-80.24","state_abbreviation":"FL","state_name":"Florida"},{"county_name":"Hillsborough","description":null,"feat_class":"Populated Place","feature_id":"2658","fips_class":"C1","fips_county_cd":"57","full_county_name":"Hillsborough County","link_title":null,"url":"http:\/\/www.tampagov.net\/","name":"Tampa","primary_latitude":"27.94","primary_longitude":"-82.45","state_abbreviation":"FL","state_name":"Florida"},{"county_name":"Lake","description":null,"feat_class":"Populated Place","feature_id":"2403","fips_class":"C1","fips_county_cd":"69","full_county_name":"Lake County","link_title":null,"url":"http:\/\/www.fruitlandpark.org\/","name":"Fruitland Park","primary_latitude":"28.86","primary_longitude":"-81.9","state_abbreviation":"FL","state_name":"Florida"},{"county_name":"Pinellas","description":null,"feat_class":"Populated Place","feature_id":"2659","fips_class":"C1","fips_county_cd":"103","full_county_name":"Pinellas County","link_title":null,"url":"http:\/\/www.ci.tarpon-springs.fl.us\/","name":"Tarpon Springs","primary_latitude":"28.14","primary_longitude":"-82.75","state_abbreviation":"FL","state_name":"Florida"},{"county_name":"Alachua","description":null,"feat_class":"Populated Place","feature_id":"2404","fips_class":"C1","fips_county_cd":"1","full_county_name":"Alachua County","link_title":null,"url":"http:\/\/www.cityofgainesville.org\/","name":"Gainesville","primary_latitude":"29.65","primary_longitude":"-82.32","state_abbreviation":"FL","state_name":"Florida"},{"county_name":"Lake","description":null,"feat_class":"Populated Place","feature_id":"2660","fips_class":"C1","fips_county_cd":"69","full_county_name":"Lake County","link_title":null,"url":"http:\/\/www.tavares.org\/","name":"Tavares","primary_latitude":"28.8","primary_longitude":"-81.72","state_abbreviation":"FL","state_name":"Florida"},{"county_name":"Hillsborough","description":null,"feat_class":"Populated Place","feature_id":"2661","fips_class":"C1","fips_county_cd":"57","full_county_name":"Hillsborough County","link_title":null,"url":"http:\/\/www.templeterrace.com\/","name":"Temple Terrace","primary_latitude":"28.03","primary_longitude":"-82.38","state_abbreviation":"FL","state_name":"Florida"},{"county_name":"Palm Beach","description":null,"feat_class":"Populated Place","feature_id":"2662","fips_class":"C1","fips_county_cd":"99","full_county_name":"Palm Beach County","link_title":null,"url":"http:\/\/www.tequesta.org\/","name":"Tequesta","primary_latitude":"26.96","primary_longitude":"-80.12","state_abbreviation":"FL","state_name":"Florida"},{"county_name":"Brevard","description":null,"feat_class":"Populated Place","feature_id":"2663","fips_class":"C1","fips_county_cd":"9","full_county_name":"Brevard County","link_title":null,"url":"http:\/\/www.titusville.com\/","name":"Titusville","primary_latitude":"28.61","primary_longitude":"-80.8","state_abbreviation":"FL","state_name":"Florida"},{"county_name":"Pinellas","description":null,"feat_class":"Populated Place","feature_id":"2664","fips_class":"C1","fips_county_cd":"103","full_county_name":"Pinellas County","link_title":null,"url":"http:\/\/www.ci.treasure-island.fl.us\/","name":"Treasure Island","primary_latitude":"27.76","primary_longitude":"-82.76","state_abbreviation":"FL","state_name":"Florida"},{"county_name":"Okaloosa","description":null,"feat_class":"Populated Place","feature_id":"2667","fips_class":"C1","fips_county_cd":"91","full_county_name":"Okaloosa County","link_title":null,"url":"http:\/\/www.valp.org\/","name":"Valparaiso","primary_latitude":"30.5","primary_longitude":"-86.5","state_abbreviation":"FL","state_name":"Florida"},{"county_name":"Sarasota","description":null,"feat_class":"Populated Place","feature_id":"2668","fips_class":"C1","fips_county_cd":"115","full_county_name":"Sarasota County","link_title":null,"url":"http:\/\/www.venicegov.com\/","name":"Venice","primary_latitude":"27.09","primary_longitude":"-82.45","state_abbreviation":"FL","state_name":"Florida"},{"county_name":"Clay","description":null,"feat_class":"Populated Place","feature_id":"2413","fips_class":"C1","fips_county_cd":"19","full_county_name":"Clay County","link_title":null,"url":"http:\/\/www.greencovesprings.com\/","name":"Green Cove Springs","primary_latitude":"29.99","primary_longitude":"-81.67","state_abbreviation":"FL","state_name":"Florida"},{"county_name":"Palm Beach","description":null,"feat_class":"Populated Place","feature_id":"2414","fips_class":"C4","fips_county_cd":"99","full_county_name":"Palm Beach County","link_title":null,"url":"http:\/\/www.ci.greenacres.fl.us\/","name":"Greenacres City","primary_latitude":"26.62","primary_longitude":"-80.12","state_abbreviation":"FL","state_name":"Florida"},{"county_name":"Indian River","description":null,"feat_class":"Populated Place","feature_id":"2670","fips_class":"C1","fips_county_cd":"61","full_county_name":"Indian River County","link_title":null,"url":"http:\/\/www.covb.org\/","name":"Vero Beach","primary_latitude":"27.63","primary_longitude":"-80.39","state_abbreviation":"FL","state_name":"Florida"},{"county_name":"Santa Rosa","description":null,"feat_class":"Populated Place","feature_id":"2420","fips_class":"C1","fips_county_cd":"113","full_county_name":"Santa Rosa County","link_title":null,"url":"http:\/\/www.cityofgulfbreeze.com\/","name":"Gulf Breeze","primary_latitude":"30.35","primary_longitude":"-87.16","state_abbreviation":"FL","state_name":"Florida"},{"county_name":"Pinellas","description":null,"feat_class":"Populated Place","feature_id":"2422","fips_class":"C1","fips_county_cd":"103","full_county_name":"Pinellas County","link_title":null,"url":"http:\/\/www.ci.gulfport.fl.us\/","name":"Gulfport","primary_latitude":"27.74","primary_longitude":"-82.7","state_abbreviation":"FL","state_name":"Florida"},{"county_name":"Palm Beach","description":null,"feat_class":"Populated Place","feature_id":"2678","fips_class":"C1","fips_county_cd":"99","full_county_name":"Palm Beach County","link_title":null,"url":"http:\/\/www.ci.wellington.fl.us\/","name":"Wellington","primary_latitude":"26.65","primary_longitude":"-80.24","state_abbreviation":"FL","state_name":"Florida"},{"county_name":"Polk","description":null,"feat_class":"Populated Place","feature_id":"2423","fips_class":"C1","fips_county_cd":"105","full_county_name":"Polk County","link_title":null,"url":"http:\/\/www.ci.haines-city.fl.us\/","name":"Haines City","primary_latitude":"28.11","primary_longitude":"-81.61","state_abbreviation":"FL","state_name":"Florida"},{"county_name":"Brevard","description":null,"feat_class":"Populated Place","feature_id":"2679","fips_class":"C1","fips_county_cd":"9","full_county_name":"Brevard County","link_title":null,"url":"http:\/\/westmelbourne.org\/","name":"West Melbourne","primary_latitude":"28.07","primary_longitude":"-80.65","state_abbreviation":"FL","state_name":"Florida"},{"county_name":"Broward","description":null,"feat_class":"Populated Place","feature_id":"2424","fips_class":"C1","fips_county_cd":"11","full_county_name":"Broward County","link_title":null,"url":"http:\/\/www.hallandalebeach.org\/","name":"Hallandale Beach","primary_latitude":"25.98","primary_longitude":"-80.14","state_abbreviation":"FL","state_name":"Florida"},{"county_name":"Palm Beach","description":null,"feat_class":"Populated Place","feature_id":"2681","fips_class":"C1","fips_county_cd":"99","full_county_name":"Palm Beach County","link_title":null,"url":"http:\/\/www.excitingcity.org\/","name":"West Palm Beach","primary_latitude":"26.71","primary_longitude":"-80.05","state_abbreviation":"FL","state_name":"Florida"},{"county_name":"Broward","description":null,"feat_class":"Populated Place","feature_id":"2683","fips_class":"C1","fips_county_cd":"11","full_county_name":"Broward County","link_title":null,"url":"http:\/\/www.westonfl.org\/","name":"Weston","primary_latitude":"26.1","primary_longitude":"-80.39","state_abbreviation":"FL","state_name":"Florida"},{"county_name":"Miami-Dade","description":null,"feat_class":"Populated Place","feature_id":"2430","fips_class":"C1","fips_county_cd":"86","full_county_name":"Miami-Dade County","link_title":null,"url":"http:\/\/www.hialeahfl.gov\/","name":"Hialeah","primary_latitude":"25.85","primary_longitude":"-80.27","state_abbreviation":"FL","state_name":"Florida"},{"county_name":"Miami-Dade","description":null,"feat_class":"Populated Place","feature_id":"2431","fips_class":"C1","fips_county_cd":"86","full_county_name":"Miami-Dade County","link_title":null,"url":"http:\/\/www.cityofhialeahgardens.com\/cohg2\/","name":"Hialeah Gardens","primary_latitude":"25.86","primary_longitude":"-80.32","state_abbreviation":"FL","state_name":"Florida"},{"county_name":"Alachua","description":null,"feat_class":"Populated Place","feature_id":"2432","fips_class":"C1","fips_county_cd":"1","full_county_name":"Alachua County","link_title":null,"url":"http:\/\/www.highsprings.com\/","name":"High Springs","primary_latitude":"29.82","primary_longitude":"-82.59","state_abbreviation":"FL","state_name":"Florida"},{"county_name":"Palm Beach","description":null,"feat_class":"Populated Place","feature_id":"2433","fips_class":"C1","fips_county_cd":"99","full_county_name":"Palm Beach County","link_title":null,"url":"http:\/\/www.ci.highland-beach.fl.us\/","name":"Highland Beach","primary_latitude":"26.39","primary_longitude":"-80.06","state_abbreviation":"FL","state_name":"Florida"},{"county_name":"Broward","description":null,"feat_class":"Populated Place","feature_id":"2689","fips_class":"C1","fips_county_cd":"11","full_county_name":"Broward County","link_title":null,"url":"http:\/\/www.wiltonmanors.com\/","name":"Wilton Manors","primary_latitude":"26.16","primary_longitude":"-80.13","state_abbreviation":"FL","state_name":"Florida"},{"county_name":"Orange","description":null,"feat_class":"Populated Place","feature_id":"2690","fips_class":"C1","fips_county_cd":"95","full_county_name":"Orange County","link_title":null,"url":"http:\/\/www.town.windermere.fl.us\/","name":"Windermere","primary_latitude":"28.49","primary_longitude":"-81.53","state_abbreviation":"FL","state_name":"Florida"},{"county_name":"Orange","description":null,"feat_class":"Populated Place","feature_id":"2691","fips_class":"C1","fips_county_cd":"95","full_county_name":"Orange County","link_title":null,"url":"http:\/\/www.cwgdn.com\/","name":"Winter Garden","primary_latitude":"28.56","primary_longitude":"-81.58","state_abbreviation":"FL","state_name":"Florida"},{"county_name":"Polk","description":null,"feat_class":"Populated Place","feature_id":"2692","fips_class":"C1","fips_county_cd":"105","full_county_name":"Polk County","link_title":null,"url":"http:\/\/www.mywinterhaven.com\/","name":"Winter Haven","primary_latitude":"28.02","primary_longitude":"-81.73","state_abbreviation":"FL","state_name":"Florida"},{"county_name":"Orange","description":null,"feat_class":"Populated Place","feature_id":"2693","fips_class":"C1","fips_county_cd":"95","full_county_name":"Orange County","link_title":null,"url":"http:\/\/www.cityofwinterpark.org\/","name":"Winter Park","primary_latitude":"28.59","primary_longitude":"-81.33","state_abbreviation":"FL","state_name":"Florida"},{"county_name":"Volusia","description":null,"feat_class":"Populated Place","feature_id":"2438","fips_class":"C1","fips_county_cd":"127","full_county_name":"Volusia County","link_title":null,"url":"http:\/\/www.hollyhillfl.org\/","name":"Holly Hill","primary_latitude":"29.24","primary_longitude":"-81.03","state_abbreviation":"FL","state_name":"Florida"},{"county_name":"Seminole","description":null,"feat_class":"Populated Place","feature_id":"2694","fips_class":"C1","fips_county_cd":"117","full_county_name":"Seminole County","link_title":null,"url":"http:\/\/www.winterspringsfl.org\/","name":"Winter Springs","primary_latitude":"28.69","primary_longitude":"-81.3","state_abbreviation":"FL","state_name":"Florida"},{"county_name":"Broward","description":null,"feat_class":"Populated Place","feature_id":"2439","fips_class":"C1","fips_county_cd":"11","full_county_name":"Broward County","link_title":null,"url":"http:\/\/www.hollywoodfl.org\/","name":"Hollywood","primary_latitude":"26.01","primary_longitude":"-80.14","state_abbreviation":"FL","state_name":"Florida"},{"county_name":"Manatee","description":null,"feat_class":"Populated Place","feature_id":"2440","fips_class":"C1","fips_county_cd":"81","full_county_name":"Manatee County","link_title":null,"url":"http:\/\/www.holmesbeach.org\/","name":"Holmes Beach","primary_latitude":"27.49","primary_longitude":"-82.71","state_abbreviation":"FL","state_name":"Florida"},{"county_name":"Miami-Dade","description":null,"feat_class":"Populated Place","feature_id":"2441","fips_class":"C1","fips_county_cd":"86","full_county_name":"Miami-Dade County","link_title":null,"url":"http:\/\/www.ci.homestead.fl.us\/","name":"Homestead","primary_latitude":"25.46","primary_longitude":"-80.47","state_abbreviation":"FL","state_name":"Florida"},{"county_name":"Pasco","description":null,"feat_class":"Populated Place","feature_id":"2697","fips_class":"C1","fips_county_cd":"101","full_county_name":"Pasco County","link_title":null,"url":"http:\/\/www.ci.zephyrhills.fl.us\/","name":"Zephyrhills","primary_latitude":"28.23","primary_longitude":"-82.18","state_abbreviation":"FL","state_name":"Florida"},{"county_name":"Palm Beach","description":null,"feat_class":"Populated Place","feature_id":"2444","fips_class":"C1","fips_county_cd":"99","full_county_name":"Palm Beach County","link_title":null,"url":"http:\/\/www.hypoluxo.org\/","name":"Hypoluxo","primary_latitude":"26.56","primary_longitude":"-80.05","state_abbreviation":"FL","state_name":"Florida"},{"county_name":"Brevard","description":null,"feat_class":"Populated Place","feature_id":"2445","fips_class":"C1","fips_county_cd":"9","full_county_name":"Brevard County","link_title":null,"url":"http:\/\/www.indialantic.com\/","name":"Indialantic","primary_latitude":"28.08","primary_longitude":"-80.56","state_abbreviation":"FL","state_name":"Florida"},{"county_name":"Monroe","description":null,"feat_class":"Populated Place","feature_id":"2454","fips_class":"C1","fips_county_cd":"87","full_county_name":"Monroe County","link_title":null,"url":"http:\/\/www.islamorada.fl.us\/","name":"Islamorada","primary_latitude":"24.92","primary_longitude":"-80.62","state_abbreviation":"FL","state_name":"Florida"},{"county_name":"Duval","description":null,"feat_class":"Populated Place","feature_id":"2456","fips_class":"C1","fips_county_cd":"31","full_county_name":"Duval County","link_title":null,"url":"http:\/\/www.coj.net\/","name":"Jacksonville","primary_latitude":"30.33","primary_longitude":"-81.65","state_abbreviation":"FL","state_name":"Florida"},{"county_name":"Duval","description":null,"feat_class":"Populated Place","feature_id":"2457","fips_class":"C1","fips_county_cd":"31","full_county_name":"Duval County","link_title":null,"url":"http:\/\/www.jacksonvillebeach.org\/","name":"Jacksonville Beach","primary_latitude":"30.29","primary_longitude":"-81.39","state_abbreviation":"FL","state_name":"Florida"},{"county_name":"Palm Beach","description":null,"feat_class":"Populated Place","feature_id":"2462","fips_class":"C1","fips_county_cd":"99","full_county_name":"Palm Beach County","link_title":null,"url":"http:\/\/www.juno-beach.fl.us\/","name":"Juno Beach","primary_latitude":"26.87","primary_longitude":"-80.05","state_abbreviation":"FL","state_name":"Florida"},{"county_name":"Palm Beach","description":null,"feat_class":"Populated Place","feature_id":"2463","fips_class":"C1","fips_county_cd":"99","full_county_name":"Palm Beach County","link_title":null,"url":"http:\/\/www.jupiter.fl.us\/","name":"Jupiter","primary_latitude":"26.93","primary_longitude":"-80.09","state_abbreviation":"FL","state_name":"Florida"},{"county_name":"Miami-Dade","description":null,"feat_class":"Populated Place","feature_id":"2467","fips_class":"C1","fips_county_cd":"86","full_county_name":"Miami-Dade County","link_title":null,"url":"http:\/\/www.keybiscayne.fl.gov\/","name":"Key Biscayne","primary_latitude":"25.69","primary_longitude":"-80.16","state_abbreviation":"FL","state_name":"Florida"},{"county_name":"Monroe","description":null,"feat_class":"Populated Place","feature_id":"2468","fips_class":"C1","fips_county_cd":"87","full_county_name":"Monroe County","link_title":null,"url":"http:\/\/www.keycolonybeach.net\/","name":"Key Colony Beach","primary_latitude":"24.72","primary_longitude":"-81.01","state_abbreviation":"FL","state_name":"Florida"},{"county_name":"Monroe","description":null,"feat_class":"Populated Place","feature_id":"2469","fips_class":"C1","fips_county_cd":"87","full_county_name":"Monroe County","link_title":null,"url":"http:\/\/www.keywestcity.com\/","name":"Key West","primary_latitude":"24.55","primary_longitude":"-81.78","state_abbreviation":"FL","state_name":"Florida"},{"county_name":"Osceola","description":null,"feat_class":"Populated Place","feature_id":"2471","fips_class":"C1","fips_county_cd":"97","full_county_name":"Osceola County","link_title":null,"url":"http:\/\/www.kissimmee.org\/","name":"Kissimmee","primary_latitude":"28.29","primary_longitude":"-81.4","state_abbreviation":"FL","state_name":"Florida"},{"county_name":"Lake","description":null,"feat_class":"Populated Place","feature_id":"2474","fips_class":"C1","fips_county_cd":"69","full_county_name":"Lake County","link_title":null,"url":"http:\/\/www.ladylake.org\/","name":"Lady Lake","primary_latitude":"28.91","primary_longitude":"-81.92","state_abbreviation":"FL","state_name":"Florida"},{"county_name":"Polk","description":null,"feat_class":"Populated Place","feature_id":"2475","fips_class":"C1","fips_county_cd":"105","full_county_name":"Polk County","link_title":null,"url":"http:\/\/www.mylakealfred.com\/","name":"Lake Alfred","primary_latitude":"28.09","primary_longitude":"-81.72","state_abbreviation":"FL","state_name":"Florida"},{"county_name":"Seminole","description":null,"feat_class":"Populated Place","feature_id":"2482","fips_class":"C1","fips_county_cd":"117","full_county_name":"Seminole County","link_title":null,"url":"http:\/\/www.lakemaryfl.com\/","name":"Lake Mary","primary_latitude":"28.75","primary_longitude":"-81.31","state_abbreviation":"FL","state_name":"Florida"},{"county_name":"Palm Beach","description":null,"feat_class":"Populated Place","feature_id":"2483","fips_class":"C1","fips_county_cd":"99","full_county_name":"Palm Beach County","link_title":null,"url":"http:\/\/www.lakeparkflorida.gov\/","name":"Lake Park","primary_latitude":"26.8","primary_longitude":"-80.06","state_abbreviation":"FL","state_name":"Florida"},{"county_name":"Highlands","description":null,"feat_class":"Populated Place","feature_id":"2484","fips_class":"C1","fips_county_cd":"55","full_county_name":"Highlands County","link_title":null,"url":"http:\/\/www.lakeplacidfl.net\/","name":"Lake Placid","primary_latitude":"27.29","primary_longitude":"-81.36","state_abbreviation":"FL","state_name":"Florida"},{"county_name":"Polk","description":null,"feat_class":"Populated Place","feature_id":"2485","fips_class":"C1","fips_county_cd":"105","full_county_name":"Polk County","link_title":null,"url":"http:\/\/www.cityoflakewales.com\/","name":"Lake Wales","primary_latitude":"27.9","primary_longitude":"-81.58","state_abbreviation":"FL","state_name":"Florida"},{"county_name":"Palm Beach","description":null,"feat_class":"Populated Place","feature_id":"2486","fips_class":"C1","fips_county_cd":"99","full_county_name":"Palm Beach County","link_title":null,"url":"http:\/\/www.lakeworth.org\/","name":"Lake Worth","primary_latitude":"26.61","primary_longitude":"-80.05","state_abbreviation":"FL","state_name":"Florida"},{"county_name":"Polk","description":null,"feat_class":"Populated Place","feature_id":"2487","fips_class":"C1","fips_county_cd":"105","full_county_name":"Polk County","link_title":null,"url":"http:\/\/www.lakelandgov.net\/","name":"Lakeland","primary_latitude":"28.03","primary_longitude":"-81.94","state_abbreviation":"FL","state_name":"Florida"},{"county_name":"Palm Beach","description":null,"feat_class":"Populated Place","feature_id":"2488","fips_class":"C1","fips_county_cd":"99","full_county_name":"Palm Beach County","link_title":null,"url":"http:\/\/www.lantana.org\/","name":"Lantana","primary_latitude":"26.58","primary_longitude":"-80.05","state_abbreviation":"FL","state_name":"Florida"},{"county_name":"Pinellas","description":null,"feat_class":"Populated Place","feature_id":"2489","fips_class":"C1","fips_county_cd":"103","full_county_name":"Pinellas County","link_title":null,"url":"http:\/\/www.largo.com\/","name":"Largo","primary_latitude":"27.9","primary_longitude":"-82.78","state_abbreviation":"FL","state_name":"Florida"},{"county_name":"Broward","description":null,"feat_class":"Populated Place","feature_id":"2490","fips_class":"C1","fips_county_cd":"11","full_county_name":"Broward County","link_title":null,"url":"http:\/\/www.lauderdalelakes.org\/","name":"Lauderdale Lakes","primary_latitude":"26.16","primary_longitude":"-80.2","state_abbreviation":"FL","state_name":"Florida"},{"county_name":"Broward","description":null,"feat_class":"Populated Place","feature_id":"2492","fips_class":"C1","fips_county_cd":"11","full_county_name":"Broward County","link_title":null,"url":"http:\/\/www.lauderhill-fl.gov\/","name":"Lauderhill","primary_latitude":"26.14","primary_longitude":"-80.21","state_abbreviation":"FL","state_name":"Florida"},{"county_name":"Lake","description":null,"feat_class":"Populated Place","feature_id":"2498","fips_class":"C1","fips_county_cd":"69","full_county_name":"Lake County","link_title":null,"url":"http:\/\/www.ci.leesburg.fl.us\/","name":"Leesburg","primary_latitude":"28.81","primary_longitude":"-81.87","state_abbreviation":"FL","state_name":"Florida"},{"county_name":"Broward","description":null,"feat_class":"Populated Place","feature_id":"2499","fips_class":"C1","fips_county_cd":"11","full_county_name":"Broward County","link_title":null,"url":"http:\/\/www.lighthousepoint.com\/","name":"Lighthouse Point","primary_latitude":"26.27","primary_longitude":"-80.08","state_abbreviation":"FL","state_name":"Florida"},{"county_name":"Suwannee","description":null,"feat_class":"Populated Place","feature_id":"2500","fips_class":"C1","fips_county_cd":"121","full_county_name":"Suwannee County","link_title":null,"url":"http:\/\/www.cityofliveoak.org\/","name":"Live Oak","primary_latitude":"30.29","primary_longitude":"-82.98","state_abbreviation":"FL","state_name":"Florida"},{"county_name":"Manatee","description":null,"feat_class":"Populated Place","feature_id":"2502","fips_class":"C1","fips_county_cd":"81","full_county_name":"Manatee County","link_title":null,"url":"http:\/\/www.longboatkey.org\/","name":"Longboat Key","primary_latitude":"27.41","primary_longitude":"-82.65","state_abbreviation":"FL","state_name":"Florida"},{"county_name":"Seminole","description":null,"feat_class":"Populated Place","feature_id":"2504","fips_class":"C1","fips_county_cd":"117","full_county_name":"Seminole County","link_title":null,"url":"http:\/\/www.longwoodfl.org\/","name":"Longwood","primary_latitude":"28.7","primary_longitude":"-81.33","state_abbreviation":"FL","state_name":"Florida"},{"county_name":"Bay","description":null,"feat_class":"Populated Place","feature_id":"2506","fips_class":"C1","fips_county_cd":"5","full_county_name":"Bay County","link_title":null,"url":"http:\/\/www.cityoflynnhaven.com\/","name":"Lynn Haven","primary_latitude":"30.24","primary_longitude":"-85.64","state_abbreviation":"FL","state_name":"Florida"},{"county_name":"Baker","description":null,"feat_class":"Populated Place","feature_id":"2507","fips_class":"C1","fips_county_cd":"3","full_county_name":"Baker County","link_title":null,"url":"http:\/\/www.cityofmacclenny.com\/","name":"Macclenny","primary_latitude":"30.28","primary_longitude":"-82.12","state_abbreviation":"FL","state_name":"Florida"},{"county_name":"Pinellas","description":null,"feat_class":"Populated Place","feature_id":"2508","fips_class":"C1","fips_county_cd":"103","full_county_name":"Pinellas County","link_title":null,"url":"http:\/\/www.madeirabeachfl.gov\/","name":"Madeira Beach","primary_latitude":"27.79","primary_longitude":"-82.79","state_abbreviation":"FL","state_name":"Florida"},{"county_name":"Orange","description":null,"feat_class":"Populated Place","feature_id":"2510","fips_class":"C1","fips_county_cd":"95","full_county_name":"Orange County","link_title":null,"url":"http:\/\/www.ci.maitland.fl.us\/","name":"Maitland","primary_latitude":"28.62","primary_longitude":"-81.36","state_abbreviation":"FL","state_name":"Florida"},{"county_name":"Brevard","description":null,"feat_class":"Populated Place","feature_id":"2511","fips_class":"C1","fips_county_cd":"9","full_county_name":"Brevard County","link_title":null,"url":"http:\/\/www.townofmalabar.org\/","name":"Malabar","primary_latitude":"28","primary_longitude":"-80.56","state_abbreviation":"FL","state_name":"Florida"},{"county_name":"Monroe","description":null,"feat_class":"Populated Place","feature_id":"2515","fips_class":"C1","fips_county_cd":"87","full_county_name":"Monroe County","link_title":null,"url":"http:\/\/www.ci.marathon.fl.us\/","name":"Marathon","primary_latitude":"24.71","primary_longitude":"-81.09","state_abbreviation":"FL","state_name":"Florida"},{"county_name":"Collier","description":null,"feat_class":"Populated Place","feature_id":"2516","fips_class":"C1","fips_county_cd":"21","full_county_name":"Collier County","link_title":null,"url":"http:\/\/www.cityofmarcoisland.com\/","name":"Marco","primary_latitude":"25.97","primary_longitude":"-81.72","state_abbreviation":"FL","state_name":"Florida"},{"county_name":"Broward","description":null,"feat_class":"Populated Place","feature_id":"2517","fips_class":"C1","fips_county_cd":"11","full_county_name":"Broward County","link_title":null,"url":"http:\/\/www.margatefl.com\/","name":"Margate","primary_latitude":"26.24","primary_longitude":"-80.2","state_abbreviation":"FL","state_name":"Florida"},{"county_name":"Okaloosa","description":null,"feat_class":"Populated Place","feature_id":"2521","fips_class":"C1","fips_county_cd":"91","full_county_name":"Okaloosa County","link_title":null,"url":"http:\/\/www.cityofmaryesther.com\/","name":"Mary Esther","primary_latitude":"30.4","primary_longitude":"-86.66","state_abbreviation":"FL","state_name":"Florida"},{"county_name":"Brevard","description":null,"feat_class":"Populated Place","feature_id":"2526","fips_class":"C1","fips_county_cd":"9","full_county_name":"Brevard County","link_title":null,"url":"http:\/\/www.melbourneflorida.org\/","name":"Melbourne","primary_latitude":"28.08","primary_longitude":"-80.6","state_abbreviation":"FL","state_name":"Florida"},{"county_name":"Brevard","description":null,"feat_class":"Populated Place","feature_id":"2527","fips_class":"C1","fips_county_cd":"9","full_county_name":"Brevard County","link_title":null,"url":"http:\/\/www.melbournebeachfl.org\/","name":"Melbourne Beach","primary_latitude":"28.06","primary_longitude":"-80.56","state_abbreviation":"FL","state_name":"Florida"},{"county_name":"Miami-Dade","description":null,"feat_class":"Populated Place","feature_id":"2530","fips_class":"C1","fips_county_cd":"86","full_county_name":"Miami-Dade County","link_title":null,"url":"http:\/\/www.miamigov.com\/","name":"Miami","primary_latitude":"25.77","primary_longitude":"-80.19","state_abbreviation":"FL","state_name":"Florida"},{"county_name":"Miami-Dade","description":null,"feat_class":"Populated Place","feature_id":"2531","fips_class":"C1","fips_county_cd":"86","full_county_name":"Miami-Dade County","link_title":null,"url":"http:\/\/web.miamibeachfl.gov\/","name":"Miami Beach","primary_latitude":"25.79","primary_longitude":"-80.13","state_abbreviation":"FL","state_name":"Florida"},{"county_name":"Miami-Dade","description":null,"feat_class":"Populated Place","feature_id":"2532","fips_class":"C1","fips_county_cd":"86","full_county_name":"Miami-Dade County","link_title":null,"url":"http:\/\/www.miamigardens-fl.gov\/","name":"Miami Gardens","primary_latitude":"25.94","primary_longitude":"-80.24","state_abbreviation":"FL","state_name":"Florida"},{"county_name":"Miami-Dade","description":null,"feat_class":"Populated Place","feature_id":"2533","fips_class":"C1","fips_county_cd":"86","full_county_name":"Miami-Dade County","link_title":null,"url":"http:\/\/www.miamilakes-fl.gov\/","name":"Miami Lakes","primary_latitude":"25.9","primary_longitude":"-80.3","state_abbreviation":"FL","state_name":"Florida"},{"county_name":"Miami-Dade","description":null,"feat_class":"Populated Place","feature_id":"2534","fips_class":"C1","fips_county_cd":"86","full_county_name":"Miami-Dade County","link_title":null,"url":"http:\/\/www.miamishoresvillage.com\/","name":"Miami Shores","primary_latitude":"25.86","primary_longitude":"-80.19","state_abbreviation":"FL","state_name":"Florida"},{"county_name":"Miami-Dade","description":null,"feat_class":"Populated Place","feature_id":"2535","fips_class":"C1","fips_county_cd":"86","full_county_name":"Miami-Dade County","link_title":null,"url":"http:\/\/www.miamisprings-fl.gov\/","name":"Miami Springs","primary_latitude":"25.82","primary_longitude":"-80.28","state_abbreviation":"FL","state_name":"Florida"},{"county_name":"Alachua","description":null,"feat_class":"Populated Place","feature_id":"2281","fips_class":"C1","fips_county_cd":"1","full_county_name":"Alachua County","link_title":null,"url":"http:\/\/www.cityofalachua.com\/","name":"Alachua","primary_latitude":"29.75","primary_longitude":"-82.42","state_abbreviation":"FL","state_name":"Florida"},{"county_name":"Gadsden","description":null,"feat_class":"Populated Place","feature_id":"2537","fips_class":"C1","fips_county_cd":"39","full_county_name":"Gadsden County","link_title":null,"url":"http:\/\/www.midwayfl.com\/","name":"Midway","primary_latitude":"30.49","primary_longitude":"-84.45","state_abbreviation":"FL","state_name":"Florida"},{"county_name":"Santa Rosa","description":null,"feat_class":"Populated Place","feature_id":"2538","fips_class":"C1","fips_county_cd":"113","full_county_name":"Santa Rosa County","link_title":null,"url":"http:\/\/www.ci.milton.fl.us\/","name":"Milton","primary_latitude":"30.63","primary_longitude":"-87.03","state_abbreviation":"FL","state_name":"Florida"},{"county_name":"Seminole","description":null,"feat_class":"Populated Place","feature_id":"2283","fips_class":"C1","fips_county_cd":"117","full_county_name":"Seminole County","link_title":null,"url":"http:\/\/www.altamonte.org\/","name":"Altamonte Springs","primary_latitude":"28.66","primary_longitude":"-81.36","state_abbreviation":"FL","state_name":"Florida"},{"county_name":"Lake","description":null,"feat_class":"Populated Place","feature_id":"2539","fips_class":"C1","fips_county_cd":"69","full_county_name":"Lake County","link_title":null,"url":"http:\/\/www.minneola.us\/","name":"Minneola","primary_latitude":"28.57","primary_longitude":"-81.74","state_abbreviation":"FL","state_name":"Florida"},{"county_name":"Broward","description":null,"feat_class":"Populated Place","feature_id":"2540","fips_class":"C1","fips_county_cd":"11","full_county_name":"Broward County","link_title":null,"url":"http:\/\/www.ci.miramar.fl.us\/","name":"Miramar","primary_latitude":"25.98","primary_longitude":"-80.23","state_abbreviation":"FL","state_name":"Florida"},{"county_name":"Manatee","description":null,"feat_class":"Populated Place","feature_id":"2285","fips_class":"C1","fips_county_cd":"81","full_county_name":"Manatee County","link_title":null,"url":"http:\/\/www.cityofannamaria.com\/","name":"Anna Maria","primary_latitude":"27.53","primary_longitude":"-82.73","state_abbreviation":"FL","state_name":"Florida"},{"county_name":"Orange","description":null,"feat_class":"Populated Place","feature_id":"2287","fips_class":"C1","fips_county_cd":"95","full_county_name":"Orange County","link_title":null,"url":"http:\/\/www.apopka.net\/","name":"Apopka","primary_latitude":"28.68","primary_longitude":"-81.5","state_abbreviation":"FL","state_name":"Florida"},{"county_name":"DeSoto","description":null,"feat_class":"Populated Place","feature_id":"2288","fips_class":"C1","fips_county_cd":"27","full_county_name":"DeSoto County","link_title":null,"url":"http:\/\/www.cityofarcadia.org\/","name":"Arcadia","primary_latitude":"27.21","primary_longitude":"-81.85","state_abbreviation":"FL","state_name":"Florida"},{"county_name":"Lake","description":null,"feat_class":"Populated Place","feature_id":"2544","fips_class":"C1","fips_county_cd":"69","full_county_name":"Lake County","link_title":null,"url":"http:\/\/ci.mount-dora.fl.us\/","name":"Mount Dora","primary_latitude":"28.8","primary_longitude":"-81.64","state_abbreviation":"FL","state_name":"Florida"},{"county_name":"Collier","description":null,"feat_class":"Populated Place","feature_id":"2546","fips_class":"C1","fips_county_cd":"21","full_county_name":"Collier County","link_title":null,"url":"http:\/\/www.naplesgov.com\/","name":"Naples","primary_latitude":"26.14","primary_longitude":"-81.79","state_abbreviation":"FL","state_name":"Florida"},{"county_name":"Duval","description":null,"feat_class":"Populated Place","feature_id":"2291","fips_class":"C1","fips_county_cd":"31","full_county_name":"Duval County","link_title":null,"url":"http:\/\/www.ci.atlantic-beach.fl.us\/","name":"Atlantic Beach","primary_latitude":"30.33","primary_longitude":"-81.39","state_abbreviation":"FL","state_name":"Florida"},{"county_name":"Duval","description":null,"feat_class":"Populated Place","feature_id":"2547","fips_class":"C1","fips_county_cd":"31","full_county_name":"Duval County","link_title":null,"url":"http:\/\/www.ci.neptune-beach.fl.us\/","name":"Neptune Beach","primary_latitude":"30.31","primary_longitude":"-81.39","state_abbreviation":"FL","state_name":"Florida"},{"county_name":"Palm Beach","description":null,"feat_class":"Populated Place","feature_id":"2292","fips_class":"C1","fips_county_cd":"99","full_county_name":"Palm Beach County","link_title":null,"url":"http:\/\/atlantisfla.org\/","name":"Atlantis","primary_latitude":"26.59","primary_longitude":"-80.1","state_abbreviation":"FL","state_name":"Florida"},{"county_name":"Pasco","description":null,"feat_class":"Populated Place","feature_id":"2548","fips_class":"C1","fips_county_cd":"101","full_county_name":"Pasco County","link_title":null,"url":"http:\/\/www.cityofnewportrichey.org\/","name":"New Port Richey","primary_latitude":"28.24","primary_longitude":"-82.71","state_abbreviation":"FL","state_name":"Florida"},{"county_name":"Polk","description":null,"feat_class":"Populated Place","feature_id":"2293","fips_class":"C1","fips_county_cd":"105","full_county_name":"Polk County","link_title":null,"url":"http:\/\/auburndalefl.com\/","name":"Auburndale","primary_latitude":"28.06","primary_longitude":"-81.78","state_abbreviation":"FL","state_name":"Florida"},{"county_name":"Volusia","description":null,"feat_class":"Populated Place","feature_id":"2549","fips_class":"C1","fips_county_cd":"127","full_county_name":"Volusia County","link_title":null,"url":"http:\/\/www.cityofnsb.com\/","name":"New Smyrna Beach","primary_latitude":"29.02","primary_longitude":"-80.92","state_abbreviation":"FL","state_name":"Florida"},{"county_name":"Miami-Dade","description":null,"feat_class":"Populated Place","feature_id":"2294","fips_class":"C1","fips_county_cd":"86","full_county_name":"Miami-Dade County","link_title":null,"url":"http:\/\/www.cityofaventura.com\/","name":"Aventura","primary_latitude":"25.95","primary_longitude":"-80.13","state_abbreviation":"FL","state_name":"Florida"},{"county_name":"Highlands","description":null,"feat_class":"Populated Place","feature_id":"2295","fips_class":"C1","fips_county_cd":"55","full_county_name":"Highlands County","link_title":null,"url":"http:\/\/avonpark.cc\/","name":"Avon Park","primary_latitude":"27.59","primary_longitude":"-81.5","state_abbreviation":"FL","state_name":"Florida"},{"county_name":"Okaloosa","description":null,"feat_class":"Populated Place","feature_id":"2551","fips_class":"C1","fips_county_cd":"91","full_county_name":"Okaloosa County","link_title":null,"url":"http:\/\/cityofniceville.org\/","name":"Niceville","primary_latitude":"30.51","primary_longitude":"-86.48","state_abbreviation":"FL","state_name":"Florida"},{"county_name":"Miami-Dade","description":null,"feat_class":"Populated Place","feature_id":"2296","fips_class":"C1","fips_county_cd":"86","full_county_name":"Miami-Dade County","link_title":null,"url":"http:\/\/www.balharbourgov.com\/","name":"Bal Harbour","primary_latitude":"25.89","primary_longitude":"-80.12","state_abbreviation":"FL","state_name":"Florida"},{"county_name":"Miami-Dade","description":null,"feat_class":"Populated Place","feature_id":"2553","fips_class":"C1","fips_county_cd":"86","full_county_name":"Miami-Dade County","link_title":null,"url":"http:\/\/www.nbvillage.com\/","name":"North Bay Village","primary_latitude":"25.84","primary_longitude":"-80.15","state_abbreviation":"FL","state_name":"Florida"},{"county_name":"Broward","description":null,"feat_class":"Populated Place","feature_id":"2554","fips_class":"C1","fips_county_cd":"11","full_county_name":"Broward County","link_title":null,"url":"http:\/\/www.nlauderdale.org\/","name":"North Lauderdale","primary_latitude":"26.21","primary_longitude":"-80.22","state_abbreviation":"FL","state_name":"Florida"},{"county_name":"Miami-Dade","description":null,"feat_class":"Populated Place","feature_id":"2555","fips_class":"C1","fips_county_cd":"86","full_county_name":"Miami-Dade County","link_title":null,"url":"http:\/\/www.northmiamifl.gov\/","name":"North Miami","primary_latitude":"25.89","primary_longitude":"-80.18","state_abbreviation":"FL","state_name":"Florida"},{"county_name":"Miami-Dade","description":null,"feat_class":"Populated Place","feature_id":"2300","fips_class":"C1","fips_county_cd":"86","full_county_name":"Miami-Dade County","link_title":null,"url":"http:\/\/www.bayharborislands.org\/","name":"Bay Harbor Islands","primary_latitude":"25.88","primary_longitude":"-80.13","state_abbreviation":"FL","state_name":"Florida"},{"county_name":"Miami-Dade","description":null,"feat_class":"Populated Place","feature_id":"2556","fips_class":"C1","fips_county_cd":"86","full_county_name":"Miami-Dade County","link_title":null,"url":"http:\/\/www.citynmb.com\/","name":"North Miami Beach","primary_latitude":"25.93","primary_longitude":"-80.16","state_abbreviation":"FL","state_name":"Florida"},{"county_name":"Palm Beach","description":null,"feat_class":"Populated Place","feature_id":"2557","fips_class":"C1","fips_county_cd":"99","full_county_name":"Palm Beach County","link_title":null,"url":"http:\/\/www.village-npb.org\/","name":"North Palm Beach","primary_latitude":"26.81","primary_longitude":"-80.08","state_abbreviation":"FL","state_name":"Florida"},{"county_name":"Sarasota","description":null,"feat_class":"Populated Place","feature_id":"2558","fips_class":"C1","fips_county_cd":"115","full_county_name":"Sarasota County","link_title":null,"url":"http:\/\/www.cityofnorthport.com\/","name":"North Port","primary_latitude":"27.04","primary_longitude":"-82.23","state_abbreviation":"FL","state_name":"Florida"},{"county_name":"Pinellas","description":null,"feat_class":"Populated Place","feature_id":"2559","fips_class":"C1","fips_county_cd":"103","full_county_name":"Pinellas County","link_title":null,"url":"http:\/\/www.townofnorthredingtonbeach.com\/","name":"North Redington Beach","primary_latitude":"27.81","primary_longitude":"-82.82","state_abbreviation":"FL","state_name":"Florida"},{"county_name":"Volusia","description":null,"feat_class":"Populated Place","feature_id":"2392","fips_class":"C1","fips_county_cd":"127","full_county_name":"Volusia County","link_title":null,"url":"http:\/\/www.cityofflaglerbeach.com\/","name":"Flagler Beach","primary_latitude":"29.47","primary_longitude":"-81.12","state_abbreviation":"FL","state_name":"Florida"},{"county_name":"Sarasota","description":null,"feat_class":"Populated Place","feature_id":"2503","fips_class":"C1","fips_county_cd":"115","full_county_name":"Sarasota County","link_title":null,"url":"http:\/\/www.longboatkey.org\/","name":"Longboat Key","primary_latitude":"27.41","primary_longitude":"-82.65","state_abbreviation":"FL","state_name":"Florida"}]