[{"county_name":"Penobscot","description":null,"feat_class":"Populated Place","feature_id":"12034","fips_class":"C5","fips_county_cd":"19","full_county_name":"Penobscot County","link_title":null,"url":"http:\/\/www.brewerme.org\/","name":"Brewer","primary_latitude":"44.79","primary_longitude":"-68.76","state_abbreviation":"ME","state_name":"Maine"},{"county_name":"Penobscot","description":null,"feat_class":"Populated Place","feature_id":"12303","fips_class":"C5","fips_county_cd":"19","full_county_name":"Penobscot County","link_title":null,"url":"http:\/\/www.old-town.org\/","name":"Old Town","primary_latitude":"44.93","primary_longitude":"-68.64","state_abbreviation":"ME","state_name":"Maine"},{"county_name":"Aroostook","description":null,"feat_class":"Populated Place","feature_id":"12058","fips_class":"C5","fips_county_cd":"3","full_county_name":"Aroostook County","link_title":null,"url":"http:\/\/www.cariboumaine.org\/","name":"Caribou","primary_latitude":"46.86","primary_longitude":"-68.01","state_abbreviation":"ME","state_name":"Maine"},{"county_name":"Cumberland","description":null,"feat_class":"Populated Place","feature_id":"12335","fips_class":"C5","fips_county_cd":"5","full_county_name":"Cumberland County","link_title":null,"url":"http:\/\/www.ci.portland.me.us\/","name":"Portland","primary_latitude":"43.66","primary_longitude":"-70.25","state_abbreviation":"ME","state_name":"Maine"},{"county_name":"Aroostook","description":null,"feat_class":"Populated Place","feature_id":"12337","fips_class":"C5","fips_county_cd":"3","full_county_name":"Aroostook County","link_title":null,"url":"http:\/\/www.presqueisle.govoffice2.com\/","name":"Presque Isle","primary_latitude":"46.68","primary_longitude":"-68.01","state_abbreviation":"ME","state_name":"Maine"},{"county_name":"Knox","description":null,"feat_class":"Populated Place","feature_id":"12349","fips_class":"C5","fips_county_cd":"13","full_county_name":"Knox County","link_title":null,"url":"http:\/\/www.ci.rockland.me.us\/","name":"Rockland","primary_latitude":"44.1","primary_longitude":"-69.1","state_abbreviation":"ME","state_name":"Maine"},{"county_name":"Washington","description":null,"feat_class":"Populated Place","feature_id":"12119","fips_class":"C5","fips_county_cd":"29","full_county_name":"Washington County","link_title":null,"url":"http:\/\/www.eastport-me.gov\/","name":"Eastport","primary_latitude":"44.9","primary_longitude":"-66.98","state_abbreviation":"ME","state_name":"Maine"},{"county_name":"Hancock","description":null,"feat_class":"Populated Place","feature_id":"12124","fips_class":"C5","fips_county_cd":"9","full_county_name":"Hancock County","link_title":null,"url":"http:\/\/www.cityofellsworthme.org\/","name":"Ellsworth","primary_latitude":"44.54","primary_longitude":"-68.41","state_abbreviation":"ME","state_name":"Maine"},{"county_name":"Cumberland","description":null,"feat_class":"Populated Place","feature_id":"12384","fips_class":"C5","fips_county_cd":"5","full_county_name":"Cumberland County","link_title":null,"url":"http:\/\/www.southportland.org\/","name":"South Portland","primary_latitude":"43.64","primary_longitude":"-70.24","state_abbreviation":"ME","state_name":"Maine"},{"county_name":"Kennebec","description":null,"feat_class":"Populated Place","feature_id":"12146","fips_class":"C5","fips_county_cd":"11","full_county_name":"Kennebec County","link_title":null,"url":"http:\/\/www.gardinermaine.com\/","name":"Gardiner","primary_latitude":"44.23","primary_longitude":"-69.77","state_abbreviation":"ME","state_name":"Maine"},{"county_name":"Kennebec","description":null,"feat_class":"Populated Place","feature_id":"12165","fips_class":"C5","fips_county_cd":"11","full_county_name":"Kennebec County","link_title":null,"url":"http:\/\/hallowell.govoffice.com\/","name":"Hallowell","primary_latitude":"44.28","primary_longitude":"-69.79","state_abbreviation":"ME","state_name":"Maine"},{"county_name":"Kennebec","description":null,"feat_class":"Populated Place","feature_id":"12439","fips_class":"C5","fips_county_cd":"11","full_county_name":"Kennebec County","link_title":null,"url":"http:\/\/www.waterville-me.gov\/","name":"Waterville","primary_latitude":"44.55","primary_longitude":"-69.63","state_abbreviation":"ME","state_name":"Maine"},{"county_name":"Cumberland","description":null,"feat_class":"Populated Place","feature_id":"12450","fips_class":"C5","fips_county_cd":"5","full_county_name":"Cumberland County","link_title":null,"url":"http:\/\/www.westbrookmaine.com\/","name":"Westbrook","primary_latitude":"43.67","primary_longitude":"-70.37","state_abbreviation":"ME","state_name":"Maine"},{"county_name":"Androscoggin","description":null,"feat_class":"Populated Place","feature_id":"12215","fips_class":"C5","fips_county_cd":"1","full_county_name":"Androscoggin County","link_title":null,"url":"http:\/\/www.ci.lewiston.me.us\/","name":"Lewiston","primary_latitude":"44.1","primary_longitude":"-70.21","state_abbreviation":"ME","state_name":"Maine"},{"county_name":"Androscoggin","description":null,"feat_class":"Populated Place","feature_id":"12002","fips_class":"C5","fips_county_cd":"1","full_county_name":"Androscoggin County","link_title":null,"url":"http:\/\/www.auburnmaine.org\/","name":"Auburn","primary_latitude":"44.09","primary_longitude":"-70.23","state_abbreviation":"ME","state_name":"Maine"},{"county_name":"Kennebec","description":null,"feat_class":"Populated Place","feature_id":"12003","fips_class":"C5","fips_county_cd":"11","full_county_name":"Kennebec County","link_title":null,"url":"http:\/\/www.augustamaine.gov\/","name":"Augusta","primary_latitude":"44.31","primary_longitude":"-69.77","state_abbreviation":"ME","state_name":"Maine"},{"county_name":"Penobscot","description":null,"feat_class":"Populated Place","feature_id":"12009","fips_class":"C5","fips_county_cd":"19","full_county_name":"Penobscot County","link_title":null,"url":"http:\/\/www.bangormaine.gov\/","name":"Bangor","primary_latitude":"44.8","primary_longitude":"-68.77","state_abbreviation":"ME","state_name":"Maine"},{"county_name":"Sagadahoc","description":null,"feat_class":"Populated Place","feature_id":"12012","fips_class":"C5","fips_county_cd":"23","full_county_name":"Sagadahoc County","link_title":null,"url":"http:\/\/www.cityofbath.com\/","name":"Bath","primary_latitude":"43.91","primary_longitude":"-69.82","state_abbreviation":"ME","state_name":"Maine"},{"county_name":"Waldo","description":null,"feat_class":"Populated Place","feature_id":"12016","fips_class":"C5","fips_county_cd":"27","full_county_name":"Waldo County","link_title":null,"url":"http:\/\/www.cityofbelfast.org\/","name":"Belfast","primary_latitude":"44.42","primary_longitude":"-69","state_abbreviation":"ME","state_name":"Maine"},{"county_name":"York","description":null,"feat_class":"Populated Place","feature_id":"12022","fips_class":"C5","fips_county_cd":"31","full_county_name":"York County","link_title":null,"url":"http:\/\/www.biddefordmaine.org\/","name":"Biddeford","primary_latitude":"43.49","primary_longitude":"-70.45","state_abbreviation":"ME","state_name":"Maine"}]