[{"county_name":"Westchester","description":null,"feat_class":"Populated Place","feature_id":"24064","fips_class":"C1","fips_county_cd":"119","full_county_name":"Westchester County","link_title":null,"url":"http:\/\/www.scarsdale.com\/","name":"Scarsdale","primary_latitude":"41","primary_longitude":"-73.78","state_abbreviation":"NY","state_name":"New York"},{"county_name":"Chenango","description":null,"feat_class":"Populated Place","feature_id":"23809","fips_class":"C5","fips_county_cd":"17","full_county_name":"Chenango County","link_title":null,"url":"http:\/\/www.norwichnewyork.net\/","name":"Norwich","primary_latitude":"42.53","primary_longitude":"-75.52","state_abbreviation":"NY","state_name":"New York"},{"county_name":"Westchester","description":null,"feat_class":"Populated Place","feature_id":"24321","fips_class":"C5","fips_county_cd":"119","full_county_name":"Westchester County","link_title":null,"url":"http:\/\/www.ci.white-plains.ny.us\/","name":"White Plains","primary_latitude":"41.03","primary_longitude":"-73.76","state_abbreviation":"NY","state_name":"New York"},{"county_name":"Nassau","description":null,"feat_class":"Populated Place","feature_id":"23555","fips_class":"C1","fips_county_cd":"59","full_county_name":"Nassau County","link_title":null,"url":"http:\/\/www.villageoflawrence.org\/","name":"Lawrence","primary_latitude":"40.61","primary_longitude":"-73.72","state_abbreviation":"NY","state_name":"New York"},{"county_name":"Nassau","description":null,"feat_class":"Populated Place","feature_id":"23044","fips_class":"C1","fips_county_cd":"59","full_county_name":"Nassau County","link_title":null,"url":"http:\/\/www.cedarhurst.gov\/","name":"Cedarhurst","primary_latitude":"40.62","primary_longitude":"-73.72","state_abbreviation":"NY","state_name":"New York"},{"county_name":"Oneida","description":null,"feat_class":"Populated Place","feature_id":"24324","fips_class":"C1","fips_county_cd":"65","full_county_name":"Oneida County","link_title":null,"url":"http:\/\/www.village.whitesboro.ny.us\/","name":"Whitesboro","primary_latitude":"43.12","primary_longitude":"-75.29","state_abbreviation":"NY","state_name":"New York"},{"county_name":"Rockland","description":null,"feat_class":"Populated Place","feature_id":"23814","fips_class":"C1","fips_county_cd":"87","full_county_name":"Rockland County","link_title":null,"url":"http:\/\/www.nyack-ny.gov\/","name":"Nyack","primary_latitude":"41.09","primary_longitude":"-73.91","state_abbreviation":"NY","state_name":"New York"},{"county_name":"Genesee","description":null,"feat_class":"Populated Place","feature_id":"23815","fips_class":"C1","fips_county_cd":"37","full_county_name":"Genesee County","link_title":null,"url":"http:\/\/www.oakfield.govoffice.com\/","name":"Oakfield","primary_latitude":"43.06","primary_longitude":"-78.26","state_abbreviation":"NY","state_name":"New York"},{"county_name":"Cattaraugus","description":null,"feat_class":"Populated Place","feature_id":"23304","fips_class":"C1","fips_county_cd":"9","full_county_name":"Cattaraugus County","link_title":null,"url":"http:\/\/www.franklinvilleny.org\/","name":"Franklinville","primary_latitude":"42.33","primary_longitude":"-78.45","state_abbreviation":"NY","state_name":"New York"},{"county_name":"Suffolk","description":null,"feat_class":"Populated Place","feature_id":"23817","fips_class":"C1","fips_county_cd":"103","full_county_name":"Suffolk County","link_title":null,"url":"http:\/\/www.villageofoceanbeach.org\/","name":"Ocean Beach","primary_latitude":"40.64","primary_longitude":"-73.15","state_abbreviation":"NY","state_name":"New York"},{"county_name":"Erie","description":null,"feat_class":"Populated Place","feature_id":"24330","fips_class":"C1","fips_county_cd":"29","full_county_name":"Erie County","link_title":null,"url":"http:\/\/village.williamsville.ny.us\/","name":"Williamsville","primary_latitude":"42.96","primary_longitude":"-78.73","state_abbreviation":"NY","state_name":"New York"},{"county_name":"Nassau","description":null,"feat_class":"Populated Place","feature_id":"23308","fips_class":"C1","fips_county_cd":"59","full_county_name":"Nassau County","link_title":null,"url":"http:\/\/www.freeportny.com\/","name":"Freeport","primary_latitude":"40.65","primary_longitude":"-73.58","state_abbreviation":"NY","state_name":"New York"},{"county_name":"St. Lawrence","description":null,"feat_class":"Populated Place","feature_id":"23820","fips_class":"C5","fips_county_cd":"89","full_county_name":"St. Lawrence County","link_title":null,"url":"http:\/\/www.ogdensburg.org\/","name":"Ogdensburg","primary_latitude":"44.69","primary_longitude":"-75.48","state_abbreviation":"NY","state_name":"New York"},{"county_name":"Suffolk","description":null,"feat_class":"Populated Place","feature_id":"23823","fips_class":"C1","fips_county_cd":"103","full_county_name":"Suffolk County","link_title":null,"url":"http:\/\/www.oldfieldny.org\/","name":"Old Field","primary_latitude":"40.95","primary_longitude":"-73.12","state_abbreviation":"NY","state_name":"New York"},{"county_name":"Cattaraugus","description":null,"feat_class":"Populated Place","feature_id":"23825","fips_class":"C5","fips_county_cd":"9","full_county_name":"Cattaraugus County","link_title":null,"url":"http:\/\/www.cityofolean.com\/","name":"Olean","primary_latitude":"42.07","primary_longitude":"-78.42","state_abbreviation":"NY","state_name":"New York"},{"county_name":"Niagara","description":null,"feat_class":"Populated Place","feature_id":"24337","fips_class":"C1","fips_county_cd":"63","full_county_name":"Niagara County","link_title":null,"url":"http:\/\/www.wilsonnewyork.com\/","name":"Wilson","primary_latitude":"43.3","primary_longitude":"-78.82","state_abbreviation":"NY","state_name":"New York"},{"county_name":"Oswego","description":null,"feat_class":"Populated Place","feature_id":"23315","fips_class":"C5","fips_county_cd":"75","full_county_name":"Oswego County","link_title":null,"url":"http:\/\/www.cityoffulton.com\/","name":"Fulton","primary_latitude":"43.32","primary_longitude":"-76.41","state_abbreviation":"NY","state_name":"New York"},{"county_name":"Madison","description":null,"feat_class":"Populated Place","feature_id":"23828","fips_class":"C5","fips_county_cd":"53","full_county_name":"Madison County","link_title":null,"url":"http:\/\/www.ci.oneida.ny.us\/","name":"Oneida","primary_latitude":"43.09","primary_longitude":"-75.65","state_abbreviation":"NY","state_name":"New York"},{"county_name":"Sullivan","description":null,"feat_class":"Populated Place","feature_id":"23574","fips_class":"C1","fips_county_cd":"105","full_county_name":"Sullivan County","link_title":null,"url":"http:\/\/townofliberty.org\/villagegovt.htm","name":"Liberty","primary_latitude":"41.8","primary_longitude":"-74.74","state_abbreviation":"NY","state_name":"New York"},{"county_name":"Otsego","description":null,"feat_class":"Populated Place","feature_id":"23830","fips_class":"C5","fips_county_cd":"77","full_county_name":"Otsego County","link_title":null,"url":"http:\/\/www.oneonta.ny.us\/","name":"Oneonta","primary_latitude":"42.45","primary_longitude":"-75.06","state_abbreviation":"NY","state_name":"New York"},{"county_name":"Nassau","description":null,"feat_class":"Populated Place","feature_id":"23325","fips_class":"C1","fips_county_cd":"59","full_county_name":"Nassau County","link_title":null,"url":"http:\/\/www.gardencityny.net\/","name":"Garden City","primary_latitude":"40.72","primary_longitude":"-73.63","state_abbreviation":"NY","state_name":"New York"},{"county_name":"Suffolk","description":null,"feat_class":"Populated Place","feature_id":"23581","fips_class":"C1","fips_county_cd":"103","full_county_name":"Suffolk County","link_title":null,"url":"http:\/\/www.villageoflindenhurst.com\/","name":"Lindenhurst","primary_latitude":"40.68","primary_longitude":"-73.37","state_abbreviation":"NY","state_name":"New York"},{"county_name":"Erie","description":null,"feat_class":"Populated Place","feature_id":"23838","fips_class":"C1","fips_county_cd":"29","full_county_name":"Erie County","link_title":null,"url":"http:\/\/www.orchardparkny.org\/","name":"Orchard Park","primary_latitude":"42.76","primary_longitude":"-78.74","state_abbreviation":"NY","state_name":"New York"},{"county_name":"Erie","description":null,"feat_class":"Populated Place","feature_id":"22815","fips_class":"C1","fips_county_cd":"29","full_county_name":"Erie County","link_title":null,"url":"http:\/\/www.erie.gov\/AKRON\/","name":"Akron","primary_latitude":"43.02","primary_longitude":"-78.49","state_abbreviation":"NY","state_name":"New York"},{"county_name":"Albany","description":null,"feat_class":"Populated Place","feature_id":"22817","fips_class":"C5","fips_county_cd":"1","full_county_name":"Albany County","link_title":null,"url":"http:\/\/www.albanyny.org\/","name":"Albany","primary_latitude":"42.65","primary_longitude":"-73.75","state_abbreviation":"NY","state_name":"New York"},{"county_name":"Madison","description":null,"feat_class":"Populated Place","feature_id":"23075","fips_class":"C1","fips_county_cd":"53","full_county_name":"Madison County","link_title":null,"url":"http:\/\/chittenango.org\/","name":"Chittenango","primary_latitude":"43.04","primary_longitude":"-75.86","state_abbreviation":"NY","state_name":"New York"},{"county_name":"Livingston","description":null,"feat_class":"Populated Place","feature_id":"23331","fips_class":"C1","fips_county_cd":"51","full_county_name":"Livingston County","link_title":null,"url":"http:\/\/www.geneseony.org\/","name":"Geneseo","primary_latitude":"42.79","primary_longitude":"-77.81","state_abbreviation":"NY","state_name":"New York"},{"county_name":"Monroe","description":null,"feat_class":"Populated Place","feature_id":"23076","fips_class":"C1","fips_county_cd":"55","full_county_name":"Monroe County","link_title":null,"url":"http:\/\/www.churchville.net\/","name":"Churchville","primary_latitude":"43.1","primary_longitude":"-77.88","state_abbreviation":"NY","state_name":"New York"},{"county_name":"Ontario","description":null,"feat_class":"Populated Place","feature_id":"23333","fips_class":"C5","fips_county_cd":"69","full_county_name":"Ontario County","link_title":null,"url":"http:\/\/www.geneva.ny.us\/","name":"Geneva","primary_latitude":"42.86","primary_longitude":"-76.97","state_abbreviation":"NY","state_name":"New York"},{"county_name":"Oneida","description":null,"feat_class":"Populated Place","feature_id":"24101","fips_class":"C5","fips_county_cd":"65","full_county_name":"Oneida County","link_title":null,"url":"http:\/\/www.sherrillny.org\/","name":"Sherrill","primary_latitude":"43.07","primary_longitude":"-75.59","state_abbreviation":"NY","state_name":"New York"},{"county_name":"Westchester","description":null,"feat_class":"Populated Place","feature_id":"24357","fips_class":"C5","fips_county_cd":"119","full_county_name":"Westchester County","link_title":null,"url":"http:\/\/www.yonkersny.gov\/","name":"Yonkers","primary_latitude":"40.93","primary_longitude":"-73.89","state_abbreviation":"NY","state_name":"New York"},{"county_name":"Onondaga","description":null,"feat_class":"Populated Place","feature_id":"23591","fips_class":"C1","fips_county_cd":"67","full_county_name":"Onondaga County","link_title":null,"url":"http:\/\/www.villageofliverpool.org\/","name":"Liverpool","primary_latitude":"43.1","primary_longitude":"-76.21","state_abbreviation":"NY","state_name":"New York"},{"county_name":"Westchester","description":null,"feat_class":"Populated Place","feature_id":"23847","fips_class":"C1","fips_county_cd":"119","full_county_name":"Westchester County","link_title":null,"url":"http:\/\/www.villageofossining.org\/","name":"Ossining","primary_latitude":"41.16","primary_longitude":"-73.86","state_abbreviation":"NY","state_name":"New York"},{"county_name":"Oswego","description":null,"feat_class":"Populated Place","feature_id":"23849","fips_class":"C5","fips_county_cd":"75","full_county_name":"Oswego County","link_title":null,"url":"http:\/\/www.oswegony.org\/","name":"Oswego","primary_latitude":"43.45","primary_longitude":"-76.51","state_abbreviation":"NY","state_name":"New York"},{"county_name":"Allegany","description":null,"feat_class":"Populated Place","feature_id":"22827","fips_class":"C1","fips_county_cd":"3","full_county_name":"Allegany County","link_title":null,"url":"http:\/\/www.alfredny.org\/","name":"Alfred","primary_latitude":"42.25","primary_longitude":"-77.79","state_abbreviation":"NY","state_name":"New York"},{"county_name":"Cattaraugus","description":null,"feat_class":"Populated Place","feature_id":"22829","fips_class":"C1","fips_county_cd":"9","full_county_name":"Cattaraugus County","link_title":null,"url":"http:\/\/www.allegany.org\/","name":"Allegany","primary_latitude":"42.09","primary_longitude":"-78.49","state_abbreviation":"NY","state_name":"New York"},{"county_name":"Onondaga","description":null,"feat_class":"Populated Place","feature_id":"24109","fips_class":"C1","fips_county_cd":"67","full_county_name":"Onondaga County","link_title":null,"url":"http:\/\/www.villageofskaneateles.com\/","name":"Skaneateles","primary_latitude":"42.94","primary_longitude":"-76.42","state_abbreviation":"NY","state_name":"New York"},{"county_name":"Niagara","description":null,"feat_class":"Populated Place","feature_id":"23598","fips_class":"C5","fips_county_cd":"63","full_county_name":"Niagara County","link_title":null,"url":"http:\/\/www.elockport.com\/","name":"Lockport","primary_latitude":"43.17","primary_longitude":"-78.69","state_abbreviation":"NY","state_name":"New York"},{"county_name":"Orange","description":null,"feat_class":"Populated Place","feature_id":"23854","fips_class":"C1","fips_county_cd":"71","full_county_name":"Orange County","link_title":null,"url":"http:\/\/www.villageofotisville.com\/","name":"Otisville","primary_latitude":"41.47","primary_longitude":"-74.53","state_abbreviation":"NY","state_name":"New York"},{"county_name":"Nassau","description":null,"feat_class":"Populated Place","feature_id":"23346","fips_class":"C5","fips_county_cd":"59","full_county_name":"Nassau County","link_title":null,"url":"http:\/\/www.glencove-li.com\/","name":"Glen Cove","primary_latitude":"40.86","primary_longitude":"-73.63","state_abbreviation":"NY","state_name":"New York"},{"county_name":"Nassau","description":null,"feat_class":"Populated Place","feature_id":"23602","fips_class":"C5","fips_county_cd":"59","full_county_name":"Nassau County","link_title":null,"url":"http:\/\/www.longbeachny.org\/","name":"Long Beach","primary_latitude":"40.58","primary_longitude":"-73.65","state_abbreviation":"NY","state_name":"New York"},{"county_name":"Warren","description":null,"feat_class":"Populated Place","feature_id":"23348","fips_class":"C5","fips_county_cd":"113","full_county_name":"Warren County","link_title":null,"url":"http:\/\/www.cityofglensfalls.com\/","name":"Glens Falls","primary_latitude":"43.3","primary_longitude":"-73.64","state_abbreviation":"NY","state_name":"New York"},{"county_name":"Fulton","description":null,"feat_class":"Populated Place","feature_id":"23350","fips_class":"C5","fips_county_cd":"35","full_county_name":"Fulton County","link_title":null,"url":"http:\/\/www.cityofgloversville.com\/","name":"Gloversville","primary_latitude":"43.05","primary_longitude":"-74.34","state_abbreviation":"NY","state_name":"New York"},{"county_name":"Oneida","description":null,"feat_class":"Populated Place","feature_id":"23096","fips_class":"C1","fips_county_cd":"65","full_county_name":"Oneida County","link_title":null,"url":"http:\/\/www.townofclinton.com\/","name":"Clinton","primary_latitude":"43.04","primary_longitude":"-75.37","state_abbreviation":"NY","state_name":"New York"},{"county_name":"Wayne","description":null,"feat_class":"Populated Place","feature_id":"24121","fips_class":"C1","fips_county_cd":"117","full_county_name":"Wayne County","link_title":null,"url":"http:\/\/www.soduspoint.info\/","name":"Sodus Point","primary_latitude":"43.27","primary_longitude":"-76.98","state_abbreviation":"NY","state_name":"New York"},{"county_name":"Suffolk","description":null,"feat_class":"Populated Place","feature_id":"22843","fips_class":"C1","fips_county_cd":"103","full_county_name":"Suffolk County","link_title":null,"url":"http:\/\/www.amityville.com\/","name":"Amityville","primary_latitude":"40.67","primary_longitude":"-73.41","state_abbreviation":"NY","state_name":"New York"},{"county_name":"Schoharie","description":null,"feat_class":"Populated Place","feature_id":"23101","fips_class":"C1","fips_county_cd":"95","full_county_name":"Schoharie County","link_title":null,"url":"http:\/\/www.cobleskill.org\/","name":"Cobleskill","primary_latitude":"42.67","primary_longitude":"-74.48","state_abbreviation":"NY","state_name":"New York"},{"county_name":"Wayne","description":null,"feat_class":"Populated Place","feature_id":"23871","fips_class":"C1","fips_county_cd":"117","full_county_name":"Wayne County","link_title":null,"url":"http:\/\/www.palmyrany.com\/","name":"Palmyra","primary_latitude":"43.06","primary_longitude":"-77.23","state_abbreviation":"NY","state_name":"New York"},{"county_name":"Albany","description":null,"feat_class":"Populated Place","feature_id":"23107","fips_class":"C5","fips_county_cd":"1","full_county_name":"Albany County","link_title":null,"url":"http:\/\/www.cohoes.com\/","name":"Cohoes","primary_latitude":"42.77","primary_longitude":"-73.7","state_abbreviation":"NY","state_name":"New York"},{"county_name":"Nassau","description":null,"feat_class":"Populated Place","feature_id":"23364","fips_class":"C1","fips_county_cd":"59","full_county_name":"Nassau County","link_title":null,"url":"http:\/\/www.greatneckvillage.org\/","name":"Great Neck","primary_latitude":"40.8","primary_longitude":"-73.72","state_abbreviation":"NY","state_name":"New York"},{"county_name":"Nassau","description":null,"feat_class":"Populated Place","feature_id":"23366","fips_class":"C1","fips_county_cd":"59","full_county_name":"Nassau County","link_title":null,"url":"http:\/\/www.greatneckplaza.net\/","name":"Great Neck Plaza","primary_latitude":"40.78","primary_longitude":"-73.72","state_abbreviation":"NY","state_name":"New York"},{"county_name":"Suffolk","description":null,"feat_class":"Populated Place","feature_id":"24134","fips_class":"C1","fips_county_cd":"103","full_county_name":"Suffolk County","link_title":null,"url":"http:\/\/www.southamptonvillage.org\/","name":"Southampton","primary_latitude":"40.88","primary_longitude":"-72.38","state_abbreviation":"NY","state_name":"New York"},{"county_name":"Suffolk","description":null,"feat_class":"Populated Place","feature_id":"23880","fips_class":"C1","fips_county_cd":"103","full_county_name":"Suffolk County","link_title":null,"url":"http:\/\/www.patchoguevillage.org\/","name":"Patchogue","primary_latitude":"40.76","primary_longitude":"-73.01","state_abbreviation":"NY","state_name":"New York"},{"county_name":"Wyoming","description":null,"feat_class":"Populated Place","feature_id":"22857","fips_class":"C1","fips_county_cd":"121","full_county_name":"Wyoming County","link_title":null,"url":"http:\/\/www.villageofarcade.org\/","name":"Arcade","primary_latitude":"42.53","primary_longitude":"-78.42","state_abbreviation":"NY","state_name":"New York"},{"county_name":"Albany","description":null,"feat_class":"Populated Place","feature_id":"23115","fips_class":"C1","fips_county_cd":"1","full_county_name":"Albany County","link_title":null,"url":"http:\/\/www.colonie.org\/","name":"Colonie","primary_latitude":"42.71","primary_longitude":"-73.83","state_abbreviation":"NY","state_name":"New York"},{"county_name":"Westchester","description":null,"feat_class":"Populated Place","feature_id":"22860","fips_class":"C1","fips_county_cd":"119","full_county_name":"Westchester County","link_title":null,"url":"http:\/\/www.ardsleyvillage.com\/","name":"Ardsley","primary_latitude":"41.01","primary_longitude":"-73.84","state_abbreviation":"NY","state_name":"New York"},{"county_name":"Nassau","description":null,"feat_class":"Populated Place","feature_id":"23629","fips_class":"C1","fips_county_cd":"59","full_county_name":"Nassau County","link_title":null,"url":"http:\/\/www.malvernevillage.org\/","name":"Malverne","primary_latitude":"40.67","primary_longitude":"-73.67","state_abbreviation":"NY","state_name":"New York"},{"county_name":"Westchester","description":null,"feat_class":"Populated Place","feature_id":"23885","fips_class":"C5","fips_county_cd":"119","full_county_name":"Westchester County","link_title":null,"url":"http:\/\/www.cityofpeekskill.com\/","name":"Peekskill","primary_latitude":"41.29","primary_longitude":"-73.92","state_abbreviation":"NY","state_name":"New York"},{"county_name":"Westchester","description":null,"feat_class":"Populated Place","feature_id":"23887","fips_class":"C1","fips_county_cd":"119","full_county_name":"Westchester County","link_title":null,"url":"http:\/\/www.pelhamny.com\/","name":"Pelham","primary_latitude":"40.9","primary_longitude":"-73.8","state_abbreviation":"NY","state_name":"New York"},{"county_name":"Westchester","description":null,"feat_class":"Populated Place","feature_id":"23632","fips_class":"C1","fips_county_cd":"119","full_county_name":"Westchester County","link_title":null,"url":"http:\/\/www.village.mamaroneck.ny.us\/","name":"Mamaroneck","primary_latitude":"40.94","primary_longitude":"-73.73","state_abbreviation":"NY","state_name":"New York"},{"county_name":"Westchester","description":null,"feat_class":"Populated Place","feature_id":"23888","fips_class":"C1","fips_county_cd":"119","full_county_name":"Westchester County","link_title":null,"url":"http:\/\/www.pelhammanor.org\/","name":"Pelham Manor","primary_latitude":"40.89","primary_longitude":"-73.8","state_abbreviation":"NY","state_name":"New York"},{"county_name":"Rockland","description":null,"feat_class":"Populated Place","feature_id":"24145","fips_class":"C1","fips_county_cd":"87","full_county_name":"Rockland County","link_title":null,"url":"http:\/\/www.villagespringvalley.org\/","name":"Spring Valley","primary_latitude":"41.11","primary_longitude":"-74.04","state_abbreviation":"NY","state_name":"New York"},{"county_name":"Onondaga","description":null,"feat_class":"Populated Place","feature_id":"23636","fips_class":"C1","fips_county_cd":"67","full_county_name":"Onondaga County","link_title":null,"url":"http:\/\/www.manliusvillage.org\/","name":"Manlius","primary_latitude":"43","primary_longitude":"-75.97","state_abbreviation":"NY","state_name":"New York"},{"county_name":"Wyoming","description":null,"feat_class":"Populated Place","feature_id":"23894","fips_class":"C1","fips_county_cd":"121","full_county_name":"Wyoming County","link_title":null,"url":"http:\/\/www.villageofperry.com\/","name":"Perry","primary_latitude":"42.71","primary_longitude":"-78","state_abbreviation":"NY","state_name":"New York"},{"county_name":"Delaware","description":null,"feat_class":"Populated Place","feature_id":"24151","fips_class":"C1","fips_county_cd":"25","full_county_name":"Delaware County","link_title":null,"url":"http:\/\/www.stamfordny.com\/","name":"Stamford","primary_latitude":"42.4","primary_longitude":"-74.61","state_abbreviation":"NY","state_name":"New York"},{"county_name":"Wyoming","description":null,"feat_class":"Populated Place","feature_id":"22873","fips_class":"C1","fips_county_cd":"121","full_county_name":"Wyoming County","link_title":null,"url":"http:\/\/attica.org\/","name":"Attica","primary_latitude":"42.86","primary_longitude":"-78.28","state_abbreviation":"NY","state_name":"New York"},{"county_name":"Cayuga","description":null,"feat_class":"Populated Place","feature_id":"22876","fips_class":"C5","fips_county_cd":"11","full_county_name":"Cayuga County","link_title":null,"url":"http:\/\/www.ci.auburn.ny.us\/","name":"Auburn","primary_latitude":"42.93","primary_longitude":"-76.56","state_abbreviation":"NY","state_name":"New York"},{"county_name":"Saratoga","description":null,"feat_class":"Populated Place","feature_id":"23133","fips_class":"C1","fips_county_cd":"91","full_county_name":"Saratoga County","link_title":null,"url":"http:\/\/www.villageofcorinthny.com\/","name":"Corinth","primary_latitude":"43.24","primary_longitude":"-73.83","state_abbreviation":"NY","state_name":"New York"},{"county_name":"Onondaga","description":null,"feat_class":"Populated Place","feature_id":"23645","fips_class":"C1","fips_county_cd":"67","full_county_name":"Onondaga County","link_title":null,"url":"http:\/\/village.marcellusny.com\/","name":"Marcellus","primary_latitude":"42.98","primary_longitude":"-76.34","state_abbreviation":"NY","state_name":"New York"},{"county_name":"Ontario","description":null,"feat_class":"Populated Place","feature_id":"23903","fips_class":"C1","fips_county_cd":"69","full_county_name":"Ontario County","link_title":null,"url":"http:\/\/www.phelpsny.com\/","name":"Phelps","primary_latitude":"42.95","primary_longitude":"-77.05","state_abbreviation":"NY","state_name":"New York"},{"county_name":"Cortland","description":null,"feat_class":"Populated Place","feature_id":"23139","fips_class":"C5","fips_county_cd":"23","full_county_name":"Cortland County","link_title":null,"url":"http:\/\/www.cortland.org\/","name":"Cortland","primary_latitude":"42.6","primary_longitude":"-76.18","state_abbreviation":"NY","state_name":"New York"},{"county_name":"Erie","description":null,"feat_class":"Populated Place","feature_id":"23395","fips_class":"C1","fips_county_cd":"29","full_county_name":"Erie County","link_title":null,"url":"http:\/\/www.villagehamburg.com\/","name":"Hamburg","primary_latitude":"42.71","primary_longitude":"-78.82","state_abbreviation":"NY","state_name":"New York"},{"county_name":"Suffolk","description":null,"feat_class":"Populated Place","feature_id":"22887","fips_class":"C1","fips_county_cd":"103","full_county_name":"Suffolk County","link_title":null,"url":"http:\/\/www.townofbabylon.com\/","name":"Babylon","primary_latitude":"40.69","primary_longitude":"-73.32","state_abbreviation":"NY","state_name":"New York"},{"county_name":"Nassau","description":null,"feat_class":"Populated Place","feature_id":"23655","fips_class":"C1","fips_county_cd":"59","full_county_name":"Nassau County","link_title":null,"url":"http:\/\/www.ci.massapequa-park.ny.us\/","name":"Massapequa Park","primary_latitude":"40.68","primary_longitude":"-73.45","state_abbreviation":"NY","state_name":"New York"},{"county_name":"St. Lawrence","description":null,"feat_class":"Populated Place","feature_id":"23656","fips_class":"C1","fips_county_cd":"89","full_county_name":"St. Lawrence County","link_title":null,"url":"http:\/\/www.massenaworks.com\/","name":"Massena","primary_latitude":"44.92","primary_longitude":"-74.89","state_abbreviation":"NY","state_name":"New York"},{"county_name":"Greene","description":null,"feat_class":"Populated Place","feature_id":"23146","fips_class":"C1","fips_county_cd":"39","full_county_name":"Greene County","link_title":null,"url":"http:\/\/www.coxsackie.org\/","name":"Coxsackie","primary_latitude":"42.35","primary_longitude":"-73.8","state_abbreviation":"NY","state_name":"New York"},{"county_name":"Nassau","description":null,"feat_class":"Populated Place","feature_id":"23658","fips_class":"C1","fips_county_cd":"59","full_county_name":"Nassau County","link_title":null,"url":"http:\/\/www.matinecockvillage.org\/","name":"Matinecock","primary_latitude":"40.87","primary_longitude":"-73.57","state_abbreviation":"NY","state_name":"New York"},{"county_name":"Rockland","description":null,"feat_class":"Populated Place","feature_id":"24170","fips_class":"C1","fips_county_cd":"87","full_county_name":"Rockland County","link_title":null,"url":"http:\/\/www.suffernvillage.com\/","name":"Suffern","primary_latitude":"41.11","primary_longitude":"-74.14","state_abbreviation":"NY","state_name":"New York"},{"county_name":"Orange","description":null,"feat_class":"Populated Place","feature_id":"23659","fips_class":"C1","fips_county_cd":"71","full_county_name":"Orange County","link_title":null,"url":"http:\/\/www.villageofmaybrook.com\/","name":"Maybrook","primary_latitude":"41.48","primary_longitude":"-74.21","state_abbreviation":"NY","state_name":"New York"},{"county_name":"Westchester","description":null,"feat_class":"Populated Place","feature_id":"23151","fips_class":"C1","fips_county_cd":"119","full_county_name":"Westchester County","link_title":null,"url":"http:\/\/village.croton-on-hudson.ny.us\/","name":"Croton-on-Hudson","primary_latitude":"41.2","primary_longitude":"-73.89","state_abbreviation":"NY","state_name":"New York"},{"county_name":"Monroe","description":null,"feat_class":"Populated Place","feature_id":"23920","fips_class":"C1","fips_county_cd":"55","full_county_name":"Monroe County","link_title":null,"url":"http:\/\/villageofpittsford.org\/","name":"Pittsford","primary_latitude":"43.09","primary_longitude":"-77.51","state_abbreviation":"NY","state_name":"New York"},{"county_name":"Onondaga","description":null,"feat_class":"Populated Place","feature_id":"24176","fips_class":"C5","fips_county_cd":"67","full_county_name":"Onondaga County","link_title":null,"url":"http:\/\/www.syracuse.ny.us\/","name":"Syracuse","primary_latitude":"43.04","primary_longitude":"-76.14","state_abbreviation":"NY","state_name":"New York"},{"county_name":"Saratoga","description":null,"feat_class":"Populated Place","feature_id":"23665","fips_class":"C5","fips_county_cd":"91","full_county_name":"Saratoga County","link_title":null,"url":"http:\/\/www.mechanicville.com\/","name":"Mechanicville","primary_latitude":"42.9","primary_longitude":"-73.68","state_abbreviation":"NY","state_name":"New York"},{"county_name":"Orleans","description":null,"feat_class":"Populated Place","feature_id":"23666","fips_class":"C1","fips_county_cd":"73","full_county_name":"Orleans County","link_title":null,"url":"http:\/\/villagemedina.org\/","name":"Medina","primary_latitude":"43.22","primary_longitude":"-78.38","state_abbreviation":"NY","state_name":"New York"},{"county_name":"Albany","description":null,"feat_class":"Populated Place","feature_id":"23667","fips_class":"C1","fips_county_cd":"1","full_county_name":"Albany County","link_title":null,"url":"http:\/\/www.villageofmenands.com\/","name":"Menands","primary_latitude":"42.69","primary_longitude":"-73.72","state_abbreviation":"NY","state_name":"New York"},{"county_name":"Genesee","description":null,"feat_class":"Populated Place","feature_id":"22902","fips_class":"C5","fips_county_cd":"37","full_county_name":"Genesee County","link_title":null,"url":"http:\/\/www.batavianewyork.com\/","name":"Batavia","primary_latitude":"42.99","primary_longitude":"-78.18","state_abbreviation":"NY","state_name":"New York"},{"county_name":"Livingston","description":null,"feat_class":"Populated Place","feature_id":"23159","fips_class":"C1","fips_county_cd":"51","full_county_name":"Livingston County","link_title":null,"url":"http:\/\/dansvilleny.org\/","name":"Dansville","primary_latitude":"42.56","primary_longitude":"-77.69","state_abbreviation":"NY","state_name":"New York"},{"county_name":"Westchester","description":null,"feat_class":"Populated Place","feature_id":"23417","fips_class":"C1","fips_county_cd":"119","full_county_name":"Westchester County","link_title":null,"url":"http:\/\/www.town.harrison.ny.us\/","name":"Harrison","primary_latitude":"40.96","primary_longitude":"-73.71","state_abbreviation":"NY","state_name":"New York"},{"county_name":"Westchester","description":null,"feat_class":"Populated Place","feature_id":"23931","fips_class":"C1","fips_county_cd":"119","full_county_name":"Westchester County","link_title":null,"url":"http:\/\/www.pleasantville-ny.gov\/","name":"Pleasantville","primary_latitude":"41.13","primary_longitude":"-73.79","state_abbreviation":"NY","state_name":"New York"},{"county_name":"Dutchess","description":null,"feat_class":"Populated Place","feature_id":"22908","fips_class":"C5","fips_county_cd":"27","full_county_name":"Dutchess County","link_title":null,"url":"http:\/\/www.cityofbeacon.org\/","name":"Beacon","primary_latitude":"41.5","primary_longitude":"-73.96","state_abbreviation":"NY","state_name":"New York"},{"county_name":"Westchester","description":null,"feat_class":"Populated Place","feature_id":"23424","fips_class":"C1","fips_county_cd":"119","full_county_name":"Westchester County","link_title":null,"url":"http:\/\/www.hastingsgov.org\/","name":"Hastings-on-Hudson","primary_latitude":"40.99","primary_longitude":"-73.87","state_abbreviation":"NY","state_name":"New York"},{"county_name":"Orange","description":null,"feat_class":"Populated Place","feature_id":"23680","fips_class":"C5","fips_county_cd":"71","full_county_name":"Orange County","link_title":null,"url":"http:\/\/www.middletown-ny.com\/","name":"Middletown","primary_latitude":"41.44","primary_longitude":"-74.42","state_abbreviation":"NY","state_name":"New York"},{"county_name":"Erie","description":null,"feat_class":"Civil","feature_id":"24192","fips_class":"C5","fips_county_cd":"29","full_county_name":"Erie County","link_title":null,"url":"http:\/\/www.ci.tonawanda.ny.us\/","name":"City of Tonawanda","primary_latitude":"43.01","primary_longitude":"-78.88","state_abbreviation":"NY","state_name":"New York"},{"county_name":"Suffolk","description":null,"feat_class":"Populated Place","feature_id":"22916","fips_class":"C1","fips_county_cd":"103","full_county_name":"Suffolk County","link_title":null,"url":"http:\/\/www.bellportvillage.org\/","name":"Bellport","primary_latitude":"40.75","primary_longitude":"-72.93","state_abbreviation":"NY","state_name":"New York"},{"county_name":"Cayuga","description":null,"feat_class":"Populated Place","feature_id":"23940","fips_class":"C1","fips_county_cd":"11","full_county_name":"Cayuga County","link_title":null,"url":"http:\/\/co.cayuga.ny.us\/portbyron\/","name":"Port Byron","primary_latitude":"43.03","primary_longitude":"-76.62","state_abbreviation":"NY","state_name":"New York"},{"county_name":"Westchester","description":null,"feat_class":"Populated Place","feature_id":"23941","fips_class":"C1","fips_county_cd":"119","full_county_name":"Westchester County","link_title":null,"url":"http:\/\/www.portchesterny.com\/","name":"Port Chester","primary_latitude":"41","primary_longitude":"-73.66","state_abbreviation":"NY","state_name":"New York"},{"county_name":"Rensselaer","description":null,"feat_class":"Populated Place","feature_id":"24198","fips_class":"C5","fips_county_cd":"83","full_county_name":"Rensselaer County","link_title":null,"url":"http:\/\/www.troyny.gov\/","name":"Troy","primary_latitude":"42.72","primary_longitude":"-73.69","state_abbreviation":"NY","state_name":"New York"},{"county_name":"Nassau","description":null,"feat_class":"Populated Place","feature_id":"23431","fips_class":"C1","fips_county_cd":"59","full_county_name":"Nassau County","link_title":null,"url":"http:\/\/www.villageofhempstead.org\/","name":"Hempstead","primary_latitude":"40.7","primary_longitude":"-73.61","state_abbreviation":"NY","state_name":"New York"},{"county_name":"Tompkins","description":null,"feat_class":"Populated Place","feature_id":"24199","fips_class":"C1","fips_county_cd":"109","full_county_name":"Tompkins County","link_title":null,"url":"http:\/\/www.trumansburg-ny.gov\/","name":"Trumansburg","primary_latitude":"42.54","primary_longitude":"-76.66","state_abbreviation":"NY","state_name":"New York"},{"county_name":"Suffolk","description":null,"feat_class":"Populated Place","feature_id":"23944","fips_class":"C1","fips_county_cd":"103","full_county_name":"Suffolk County","link_title":null,"url":"http:\/\/www.portjeff.com\/","name":"Port Jefferson","primary_latitude":"40.94","primary_longitude":"-73.06","state_abbreviation":"NY","state_name":"New York"},{"county_name":"Orange","description":null,"feat_class":"Populated Place","feature_id":"23945","fips_class":"C5","fips_county_cd":"71","full_county_name":"Orange County","link_title":null,"url":"http:\/\/portjervisny.org\/","name":"Port Jervis","primary_latitude":"41.37","primary_longitude":"-74.69","state_abbreviation":"NY","state_name":"New York"},{"county_name":"Westchester","description":null,"feat_class":"Populated Place","feature_id":"24201","fips_class":"C1","fips_county_cd":"119","full_county_name":"Westchester County","link_title":null,"url":"http:\/\/www.tuckahoe.com\/","name":"Tuckahoe","primary_latitude":"40.95","primary_longitude":"-73.82","state_abbreviation":"NY","state_name":"New York"},{"county_name":"Erie","description":null,"feat_class":"Populated Place","feature_id":"23180","fips_class":"C1","fips_county_cd":"29","full_county_name":"Erie County","link_title":null,"url":"http:\/\/www.villageofdepew.org\/","name":"Depew","primary_latitude":"42.9","primary_longitude":"-78.69","state_abbreviation":"NY","state_name":"New York"},{"county_name":"Broome","description":null,"feat_class":"Populated Place","feature_id":"22931","fips_class":"C5","fips_county_cd":"7","full_county_name":"Broome County","link_title":null,"url":"http:\/\/www.cityofbinghamton.com\/","name":"Binghamton","primary_latitude":"42.09","primary_longitude":"-75.91","state_abbreviation":"NY","state_name":"New York"},{"county_name":"Dutchess","description":null,"feat_class":"Populated Place","feature_id":"23956","fips_class":"C5","fips_county_cd":"27","full_county_name":"Dutchess County","link_title":null,"url":"http:\/\/www.cityofpoughkeepsie.com\/","name":"Poughkeepsie","primary_latitude":"41.7","primary_longitude":"-73.92","state_abbreviation":"NY","state_name":"New York"},{"county_name":"Orange","description":null,"feat_class":"Populated Place","feature_id":"23702","fips_class":"C1","fips_county_cd":"71","full_county_name":"Orange County","link_title":null,"url":"http:\/\/www.monroeny.org\/","name":"Monroe","primary_latitude":"41.33","primary_longitude":"-74.18","state_abbreviation":"NY","state_name":"New York"},{"county_name":"Westchester","description":null,"feat_class":"Populated Place","feature_id":"23191","fips_class":"C1","fips_county_cd":"119","full_county_name":"Westchester County","link_title":null,"url":"http:\/\/www.dobbsferry.com\/","name":"Dobbs Ferry","primary_latitude":"41.01","primary_longitude":"-73.87","state_abbreviation":"NY","state_name":"New York"},{"county_name":"Rockland","description":null,"feat_class":"Populated Place","feature_id":"23447","fips_class":"C1","fips_county_cd":"87","full_county_name":"Rockland County","link_title":null,"url":"http:\/\/www.hillburn.org\/","name":"Hillburn","primary_latitude":"41.12","primary_longitude":"-74.16","state_abbreviation":"NY","state_name":"New York"},{"county_name":"Monroe","description":null,"feat_class":"Populated Place","feature_id":"23449","fips_class":"C1","fips_county_cd":"55","full_county_name":"Monroe County","link_title":null,"url":"http:\/\/www.hiltonny.org\/","name":"Hilton","primary_latitude":"43.28","primary_longitude":"-77.79","state_abbreviation":"NY","state_name":"New York"},{"county_name":"Cayuga","description":null,"feat_class":"Populated Place","feature_id":"24219","fips_class":"C1","fips_county_cd":"11","full_county_name":"Cayuga County","link_title":null,"url":"http:\/\/co.cayuga.ny.us\/unionsprings\/","name":"Union Springs","primary_latitude":"42.83","primary_longitude":"-76.69","state_abbreviation":"NY","state_name":"New York"},{"county_name":"Tompkins","description":null,"feat_class":"Populated Place","feature_id":"23197","fips_class":"C1","fips_county_cd":"109","full_county_name":"Tompkins County","link_title":null,"url":"http:\/\/www.dryden-ny.org\/","name":"Dryden","primary_latitude":"42.49","primary_longitude":"-76.29","state_abbreviation":"NY","state_name":"New York"},{"county_name":"Sullivan","description":null,"feat_class":"Populated Place","feature_id":"23709","fips_class":"C1","fips_county_cd":"105","full_county_name":"Sullivan County","link_title":null,"url":"http:\/\/www.villageofmonticello.com\/","name":"Monticello","primary_latitude":"41.65","primary_longitude":"-74.68","state_abbreviation":"NY","state_name":"New York"},{"county_name":"Oneida","description":null,"feat_class":"Populated Place","feature_id":"23454","fips_class":"C1","fips_county_cd":"65","full_county_name":"Oneida County","link_title":null,"url":"http:\/\/www.village.holland-patent.ny.us\/","name":"Holland Patent","primary_latitude":"43.24","primary_longitude":"-75.25","state_abbreviation":"NY","state_name":"New York"},{"county_name":"Oneida","description":null,"feat_class":"Populated Place","feature_id":"24225","fips_class":"C5","fips_county_cd":"65","full_county_name":"Oneida County","link_title":null,"url":"http:\/\/www.cityofutica.com\/","name":"Utica","primary_latitude":"43.1","primary_longitude":"-75.23","state_abbreviation":"NY","state_name":"New York"},{"county_name":"Oneida","description":null,"feat_class":"Populated Place","feature_id":"22946","fips_class":"C1","fips_county_cd":"65","full_county_name":"Oneida County","link_title":null,"url":"http:\/\/www.village.boonville.ny.us\/","name":"Boonville","primary_latitude":"43.48","primary_longitude":"-75.33","state_abbreviation":"NY","state_name":"New York"},{"county_name":"Cayuga","description":null,"feat_class":"Populated Place","feature_id":"23714","fips_class":"C1","fips_county_cd":"11","full_county_name":"Cayuga County","link_title":null,"url":"http:\/\/co.cayuga.ny.us\/villageofmoravia\/","name":"Moravia","primary_latitude":"42.71","primary_longitude":"-76.42","state_abbreviation":"NY","state_name":"New York"},{"county_name":"Erie","description":null,"feat_class":"Populated Place","feature_id":"23207","fips_class":"C1","fips_county_cd":"29","full_county_name":"Erie County","link_title":null,"url":"http:\/\/www.east-aurora.ny.us\/","name":"East Aurora","primary_latitude":"42.76","primary_longitude":"-78.61","state_abbreviation":"NY","state_name":"New York"},{"county_name":"Steuben","description":null,"feat_class":"Populated Place","feature_id":"23466","fips_class":"C5","fips_county_cd":"101","full_county_name":"Steuben County","link_title":null,"url":"http:\/\/www.cityofhornell.com\/","name":"Hornell","primary_latitude":"42.32","primary_longitude":"-77.66","state_abbreviation":"NY","state_name":"New York"},{"county_name":"Suffolk","description":null,"feat_class":"Populated Place","feature_id":"23211","fips_class":"C1","fips_county_cd":"103","full_county_name":"Suffolk County","link_title":null,"url":"http:\/\/www.town.east-hampton.ny.us\/","name":"East Hampton","primary_latitude":"40.96","primary_longitude":"-72.18","state_abbreviation":"NY","state_name":"New York"},{"county_name":"Dutchess","description":null,"feat_class":"Populated Place","feature_id":"23979","fips_class":"C1","fips_county_cd":"27","full_county_name":"Dutchess County","link_title":null,"url":"http:\/\/www.redhook.org\/","name":"Red Hook","primary_latitude":"41.99","primary_longitude":"-73.87","state_abbreviation":"NY","state_name":"New York"},{"county_name":"Chemung","description":null,"feat_class":"Populated Place","feature_id":"23468","fips_class":"C1","fips_county_cd":"15","full_county_name":"Chemung County","link_title":null,"url":"http:\/\/www.horseheads.org\/","name":"Horseheads","primary_latitude":"42.16","primary_longitude":"-76.82","state_abbreviation":"NY","state_name":"New York"},{"county_name":"Nassau","description":null,"feat_class":"Populated Place","feature_id":"23213","fips_class":"C1","fips_county_cd":"59","full_county_name":"Nassau County","link_title":null,"url":"http:\/\/www.villageofeasthills.org\/","name":"East Hills","primary_latitude":"40.79","primary_longitude":"-73.62","state_abbreviation":"NY","state_name":"New York"},{"county_name":"Livingston","description":null,"feat_class":"Populated Place","feature_id":"23725","fips_class":"C1","fips_county_cd":"51","full_county_name":"Livingston County","link_title":null,"url":"http:\/\/www.villageofmountmorris.com\/","name":"Mount Morris","primary_latitude":"42.72","primary_longitude":"-77.87","state_abbreviation":"NY","state_name":"New York"},{"county_name":"Westchester","description":null,"feat_class":"Populated Place","feature_id":"23728","fips_class":"C5","fips_county_cd":"119","full_county_name":"Westchester County","link_title":null,"url":"http:\/\/www.ci.mount-vernon.ny.us\/","name":"Mount Vernon","primary_latitude":"40.91","primary_longitude":"-73.83","state_abbreviation":"NY","state_name":"New York"},{"county_name":"Ontario","description":null,"feat_class":"Populated Place","feature_id":"24240","fips_class":"C1","fips_county_cd":"69","full_county_name":"Ontario County","link_title":null,"url":"http:\/\/www.victorny.org\/","name":"Victor","primary_latitude":"42.98","primary_longitude":"-77.4","state_abbreviation":"NY","state_name":"New York"},{"county_name":"Nassau","description":null,"feat_class":"Populated Place","feature_id":"23218","fips_class":"C1","fips_county_cd":"59","full_county_name":"Nassau County","link_title":null,"url":"http:\/\/www.villageofeastrockaway.org\/","name":"East Rockaway","primary_latitude":"40.64","primary_longitude":"-73.66","state_abbreviation":"NY","state_name":"New York"},{"county_name":"Nassau","description":null,"feat_class":"Populated Place","feature_id":"23220","fips_class":"C1","fips_county_cd":"59","full_county_name":"Nassau County","link_title":null,"url":"http:\/\/eastwilliston.org\/","name":"East Williston","primary_latitude":"40.75","primary_longitude":"-73.63","state_abbreviation":"NY","state_name":"New York"},{"county_name":"Monroe","description":null,"feat_class":"Populated Place","feature_id":"22965","fips_class":"C1","fips_county_cd":"55","full_county_name":"Monroe County","link_title":null,"url":"http:\/\/brockportny.org\/","name":"Brockport","primary_latitude":"43.21","primary_longitude":"-77.93","state_abbreviation":"NY","state_name":"New York"},{"county_name":"Westchester","description":null,"feat_class":"Populated Place","feature_id":"22967","fips_class":"C1","fips_county_cd":"119","full_county_name":"Westchester County","link_title":null,"url":"http:\/\/villageofbronxville.com\/","name":"Bronxville","primary_latitude":"40.93","primary_longitude":"-73.83","state_abbreviation":"NY","state_name":"New York"},{"county_name":"Herkimer","description":null,"feat_class":"Populated Place","feature_id":"23483","fips_class":"C1","fips_county_cd":"43","full_county_name":"Herkimer County","link_title":null,"url":"http:\/\/www.ilionny.com\/","name":"Ilion","primary_latitude":"43.01","primary_longitude":"-75.03","state_abbreviation":"NY","state_name":"New York"},{"county_name":"Onondaga","description":null,"feat_class":"Populated Place","feature_id":"23231","fips_class":"C1","fips_county_cd":"67","full_county_name":"Onondaga County","link_title":null,"url":"http:\/\/www.villageofelbridge.com\/","name":"Elbridge","primary_latitude":"43.03","primary_longitude":"-76.44","state_abbreviation":"NY","state_name":"New York"},{"county_name":"Westchester","description":null,"feat_class":"Populated Place","feature_id":"22977","fips_class":"C1","fips_county_cd":"119","full_county_name":"Westchester County","link_title":null,"url":"http:\/\/www.villageofbuchanan.org\/","name":"Buchanan","primary_latitude":"41.26","primary_longitude":"-73.93","state_abbreviation":"NY","state_name":"New York"},{"county_name":"Erie","description":null,"feat_class":"Populated Place","feature_id":"22978","fips_class":"C5","fips_county_cd":"29","full_county_name":"Erie County","link_title":null,"url":"http:\/\/www.ci.buffalo.ny.us\/","name":"Buffalo","primary_latitude":"42.88","primary_longitude":"-78.87","state_abbreviation":"NY","state_name":"New York"},{"county_name":"Westchester","description":null,"feat_class":"Populated Place","feature_id":"23490","fips_class":"C1","fips_county_cd":"119","full_county_name":"Westchester County","link_title":null,"url":"http:\/\/www.irvingtonny.gov\/","name":"Village of Irvington","primary_latitude":"41.0391","primary_longitude":"-73.867","state_abbreviation":"NY","state_name":"New York"},{"county_name":"Monroe","description":null,"feat_class":"Populated Place","feature_id":"24004","fips_class":"C5","fips_county_cd":"55","full_county_name":"Monroe County","link_title":null,"url":"http:\/\/www.cityofrochester.gov\/","name":"Rochester","primary_latitude":"43.15","primary_longitude":"-77.61","state_abbreviation":"NY","state_name":"New York"},{"county_name":"Oneida","description":null,"feat_class":"Populated Place","feature_id":"23749","fips_class":"C1","fips_county_cd":"65","full_county_name":"Oneida County","link_title":null,"url":"http:\/\/www.newhartfordtown.com\/","name":"New Hartford","primary_latitude":"43.07","primary_longitude":"-75.28","state_abbreviation":"NY","state_name":"New York"},{"county_name":"Nassau","description":null,"feat_class":"Populated Place","feature_id":"24007","fips_class":"C1","fips_county_cd":"59","full_county_name":"Nassau County","link_title":null,"url":"http:\/\/www.rvcny.us\/","name":"Rockville Centre","primary_latitude":"40.65","primary_longitude":"-73.64","state_abbreviation":"NY","state_name":"New York"},{"county_name":"Tompkins","description":null,"feat_class":"Populated Place","feature_id":"23496","fips_class":"C5","fips_county_cd":"109","full_county_name":"Tompkins County","link_title":null,"url":"http:\/\/www.ci.ithaca.ny.us\/","name":"Ithaca","primary_latitude":"42.44","primary_longitude":"-76.49","state_abbreviation":"NY","state_name":"New York"},{"county_name":"Nassau","description":null,"feat_class":"Populated Place","feature_id":"23753","fips_class":"C1","fips_county_cd":"59","full_county_name":"Nassau County","link_title":null,"url":"http:\/\/www.vnhp.org\/","name":"New Hyde Park","primary_latitude":"40.73","primary_longitude":"-73.68","state_abbreviation":"NY","state_name":"New York"},{"county_name":"Oneida","description":null,"feat_class":"Populated Place","feature_id":"24009","fips_class":"C5","fips_county_cd":"65","full_county_name":"Oneida County","link_title":null,"url":"http:\/\/www.romenewyork.com\/","name":"Rome","primary_latitude":"43.21","primary_longitude":"-75.45","state_abbreviation":"NY","state_name":"New York"},{"county_name":"Chemung","description":null,"feat_class":"Populated Place","feature_id":"23244","fips_class":"C5","fips_county_cd":"15","full_county_name":"Chemung County","link_title":null,"url":"http:\/\/www.ci.elmira.ny.us\/","name":"Elmira","primary_latitude":"42.08","primary_longitude":"-76.8","state_abbreviation":"NY","state_name":"New York"},{"county_name":"Ulster","description":null,"feat_class":"Populated Place","feature_id":"23756","fips_class":"C1","fips_county_cd":"111","full_county_name":"Ulster County","link_title":null,"url":"http:\/\/www.villageofnewpaltz.org\/","name":"New Paltz","primary_latitude":"41.74","primary_longitude":"-74.08","state_abbreviation":"NY","state_name":"New York"},{"county_name":"Westchester","description":null,"feat_class":"Populated Place","feature_id":"23758","fips_class":"C5","fips_county_cd":"119","full_county_name":"Westchester County","link_title":null,"url":"http:\/\/www.newrochelleny.com\/","name":"New Rochelle","primary_latitude":"40.91","primary_longitude":"-73.78","state_abbreviation":"NY","state_name":"New York"},{"county_name":"Saratoga","description":null,"feat_class":"Populated Place","feature_id":"24270","fips_class":"C1","fips_county_cd":"91","full_county_name":"Saratoga County","link_title":null,"url":"http:\/\/www.waterfordny.org\/","name":"Waterford","primary_latitude":"42.79","primary_longitude":"-73.68","state_abbreviation":"NY","state_name":"New York"},{"county_name":"Westchester","description":null,"feat_class":"Populated Place","feature_id":"23247","fips_class":"C1","fips_county_cd":"119","full_county_name":"Westchester County","link_title":null,"url":"http:\/\/www.elmsfordny.org\/","name":"Elmsford","primary_latitude":"41.05","primary_longitude":"-73.82","state_abbreviation":"NY","state_name":"New York"},{"county_name":"Jefferson","description":null,"feat_class":"Populated Place","feature_id":"24274","fips_class":"C5","fips_county_cd":"45","full_county_name":"Jefferson County","link_title":null,"url":"http:\/\/www.citywatertown.org\/","name":"Watertown","primary_latitude":"43.97","primary_longitude":"-75.91","state_abbreviation":"NY","state_name":"New York"},{"county_name":"Broome","description":null,"feat_class":"Populated Place","feature_id":"23508","fips_class":"C1","fips_county_cd":"7","full_county_name":"Broome County","link_title":null,"url":"http:\/\/www.johnsoncityny.org\/","name":"Johnson City","primary_latitude":"42.11","primary_longitude":"-75.95","state_abbreviation":"NY","state_name":"New York"},{"county_name":"New York","description":null,"feat_class":"Populated Place","feature_id":"23764","fips_class":"C1","fips_county_cd":"61","full_county_name":"New York County","link_title":null,"url":"http:\/\/www.nyc.gov\/","name":"New York","primary_latitude":"40.71","primary_longitude":"-74","state_abbreviation":"NY","state_name":"New York"},{"county_name":"Saratoga","description":null,"feat_class":"Populated Place","feature_id":"24020","fips_class":"C1","fips_county_cd":"91","full_county_name":"Saratoga County","link_title":null,"url":"http:\/\/www.roundlakevillage.org\/","name":"Round Lake","primary_latitude":"42.93","primary_longitude":"-73.78","state_abbreviation":"NY","state_name":"New York"},{"county_name":"Albany","description":null,"feat_class":"Populated Place","feature_id":"24276","fips_class":"C5","fips_county_cd":"1","full_county_name":"Albany County","link_title":null,"url":"http:\/\/www.watervliet.com\/","name":"Watervliet","primary_latitude":"42.73","primary_longitude":"-73.7","state_abbreviation":"NY","state_name":"New York"},{"county_name":"Fulton","description":null,"feat_class":"Populated Place","feature_id":"23509","fips_class":"C5","fips_county_cd":"35","full_county_name":"Fulton County","link_title":null,"url":"http:\/\/www.cityofjohnstown-ny.com\/","name":"Johnstown","primary_latitude":"43","primary_longitude":"-74.36","state_abbreviation":"NY","state_name":"New York"},{"county_name":"Schoharie","description":null,"feat_class":"Populated Place","feature_id":"23254","fips_class":"C1","fips_county_cd":"95","full_county_name":"Schoharie County","link_title":null,"url":"http:\/\/www.schohariecounty-ny.gov\/CountyWebSite\/","name":"Esperance","primary_latitude":"42.76","primary_longitude":"-74.25","state_abbreviation":"NY","state_name":"New York"},{"county_name":"Orange","description":null,"feat_class":"Populated Place","feature_id":"23771","fips_class":"C5","fips_county_cd":"71","full_county_name":"Orange County","link_title":null,"url":"http:\/\/www.cityofnewburgh-ny.gov","name":"Newburgh","primary_latitude":"41.5","primary_longitude":"-74.01","state_abbreviation":"NY","state_name":"New York"},{"county_name":"Ontario","description":null,"feat_class":"Populated Place","feature_id":"23005","fips_class":"C5","fips_county_cd":"69","full_county_name":"Ontario County","link_title":null,"url":"http:\/\/canandaigua.govoffice.com\/","name":"Canandaigua","primary_latitude":"42.87","primary_longitude":"-77.28","state_abbreviation":"NY","state_name":"New York"},{"county_name":"Cayuga","description":null,"feat_class":"Populated Place","feature_id":"23262","fips_class":"C1","fips_county_cd":"11","full_county_name":"Cayuga County","link_title":null,"url":"http:\/\/co.cayuga.ny.us\/fairhaven\/","name":"Fair Haven","primary_latitude":"43.31","primary_longitude":"-76.7","state_abbreviation":"NY","state_name":"New York"},{"county_name":"Erie","description":null,"feat_class":"Populated Place","feature_id":"23518","fips_class":"C1","fips_county_cd":"29","full_county_name":"Erie County","link_title":null,"url":"http:\/\/www.villageofkenmore.org\/","name":"Kenmore","primary_latitude":"42.96","primary_longitude":"-78.87","state_abbreviation":"NY","state_name":"New York"},{"county_name":"Westchester","description":null,"feat_class":"Populated Place","feature_id":"24031","fips_class":"C5","fips_county_cd":"119","full_county_name":"Westchester County","link_title":null,"url":"http:\/\/www.ryeny.gov\/","name":"Rye","primary_latitude":"40.98","primary_longitude":"-73.68","state_abbreviation":"NY","state_name":"New York"},{"county_name":"Madison","description":null,"feat_class":"Populated Place","feature_id":"23008","fips_class":"C1","fips_county_cd":"53","full_county_name":"Madison County","link_title":null,"url":"http:\/\/www.canastota.com\/","name":"Canastota","primary_latitude":"43.07","primary_longitude":"-75.75","state_abbreviation":"NY","state_name":"New York"},{"county_name":"Monroe","description":null,"feat_class":"Populated Place","feature_id":"24288","fips_class":"C1","fips_county_cd":"55","full_county_name":"Monroe County","link_title":null,"url":"http:\/\/www.ci.webster.ny.us\/","name":"Webster","primary_latitude":"43.21","primary_longitude":"-77.42","state_abbreviation":"NY","state_name":"New York"},{"county_name":"Westchester","description":null,"feat_class":"Populated Place","feature_id":"24033","fips_class":"C1","fips_county_cd":"119","full_county_name":"Westchester County","link_title":null,"url":"http:\/\/www.ryebrook.org\/","name":"Rye Brook","primary_latitude":"41.01","primary_longitude":"-73.68","state_abbreviation":"NY","state_name":"New York"},{"county_name":"Cayuga","description":null,"feat_class":"Populated Place","feature_id":"24289","fips_class":"C1","fips_county_cd":"11","full_county_name":"Cayuga County","link_title":null,"url":"http:\/\/co.cayuga.ny.us\/weedsport\/","name":"Weedsport","primary_latitude":"43.04","primary_longitude":"-76.56","state_abbreviation":"NY","state_name":"New York"},{"county_name":"Nassau","description":null,"feat_class":"Populated Place","feature_id":"24035","fips_class":"C1","fips_county_cd":"59","full_county_name":"Nassau County","link_title":null,"url":"http:\/\/www.saddlerock.org\/","name":"Saddle Rock","primary_latitude":"40.79","primary_longitude":"-73.74","state_abbreviation":"NY","state_name":"New York"},{"county_name":"Nassau","description":null,"feat_class":"Populated Place","feature_id":"23268","fips_class":"C1","fips_county_cd":"59","full_county_name":"Nassau County","link_title":null,"url":"http:\/\/www.farmingdalevillage.com\/","name":"Farmingdale","primary_latitude":"40.73","primary_longitude":"-73.44","state_abbreviation":"NY","state_name":"New York"},{"county_name":"Niagara","description":null,"feat_class":"Populated Place","feature_id":"23780","fips_class":"C5","fips_county_cd":"63","full_county_name":"Niagara County","link_title":null,"url":"http:\/\/www.niagarafallsusa.org\/","name":"Niagara Falls","primary_latitude":"43.09","primary_longitude":"-79.05","state_abbreviation":"NY","state_name":"New York"},{"county_name":"St. Lawrence","description":null,"feat_class":"Populated Place","feature_id":"23014","fips_class":"C1","fips_county_cd":"89","full_county_name":"St. Lawrence County","link_title":null,"url":"http:\/\/www.village.canton.ny.us\/","name":"Canton","primary_latitude":"44.59","primary_longitude":"-75.16","state_abbreviation":"NY","state_name":"New York"},{"county_name":"Ulster","description":null,"feat_class":"Populated Place","feature_id":"23526","fips_class":"C5","fips_county_cd":"111","full_county_name":"Ulster County","link_title":null,"url":"http:\/\/www.ci.kingston.ny.us\/","name":"Kingston","primary_latitude":"41.92","primary_longitude":"-73.99","state_abbreviation":"NY","state_name":"New York"},{"county_name":"Jefferson","description":null,"feat_class":"Populated Place","feature_id":"24297","fips_class":"C1","fips_county_cd":"45","full_county_name":"Jefferson County","link_title":null,"url":"http:\/\/www.villageofwestcarthage.org\/","name":"West Carthage","primary_latitude":"43.97","primary_longitude":"-75.61","state_abbreviation":"NY","state_name":"New York"},{"county_name":"Erie","description":null,"feat_class":"Populated Place","feature_id":"23534","fips_class":"C5","fips_county_cd":"29","full_county_name":"Erie County","link_title":null,"url":"http:\/\/www.ci.lackawanna.ny.us\/","name":"Lackawanna","primary_latitude":"42.82","primary_longitude":"-78.82","state_abbreviation":"NY","state_name":"New York"},{"county_name":"Suffolk","description":null,"feat_class":"Populated Place","feature_id":"24046","fips_class":"C1","fips_county_cd":"103","full_county_name":"Suffolk County","link_title":null,"url":"http:\/\/www.saltaire.org\/","name":"Saltaire","primary_latitude":"40.63","primary_longitude":"-73.19","state_abbreviation":"NY","state_name":"New York"},{"county_name":"Nassau","description":null,"feat_class":"Populated Place","feature_id":"24048","fips_class":"C1","fips_county_cd":"59","full_county_name":"Nassau County","link_title":null,"url":"http:\/\/www.sandspoint.org\/","name":"Sands Point","primary_latitude":"40.85","primary_longitude":"-73.71","state_abbreviation":"NY","state_name":"New York"},{"county_name":"Nassau","description":null,"feat_class":"Populated Place","feature_id":"23281","fips_class":"C1","fips_county_cd":"59","full_county_name":"Nassau County","link_title":null,"url":"http:\/\/www.fpvillage.org\/","name":"Floral Park","primary_latitude":"40.72","primary_longitude":"-73.7","state_abbreviation":"NY","state_name":"New York"},{"county_name":"Nassau","description":null,"feat_class":"Populated Place","feature_id":"24306","fips_class":"C1","fips_county_cd":"59","full_county_name":"Nassau County","link_title":null,"url":"http:\/\/www.villageofwestbury.org\/","name":"Westbury","primary_latitude":"40.75","primary_longitude":"-73.58","state_abbreviation":"NY","state_name":"New York"},{"county_name":"Nassau","description":null,"feat_class":"Populated Place","feature_id":"23285","fips_class":"C1","fips_county_cd":"59","full_county_name":"Nassau County","link_title":null,"url":"http:\/\/www.villageflowerhill.com\/","name":"Flower Hill","primary_latitude":"40.8","primary_longitude":"-73.68","state_abbreviation":"NY","state_name":"New York"},{"county_name":"Suffolk","description":null,"feat_class":"Populated Place","feature_id":"24312","fips_class":"C1","fips_county_cd":"103","full_county_name":"Suffolk County","link_title":null,"url":"http:\/\/www.westhamptonbeach.org\/","name":"Westhampton Beach","primary_latitude":"40.8","primary_longitude":"-72.61","state_abbreviation":"NY","state_name":"New York"},{"county_name":"Erie","description":null,"feat_class":"Populated Place","feature_id":"23545","fips_class":"C1","fips_county_cd":"29","full_county_name":"Erie County","link_title":null,"url":"http:\/\/www.lancastervillage.org\/","name":"Lancaster","primary_latitude":"42.9","primary_longitude":"-78.67","state_abbreviation":"NY","state_name":"New York"},{"county_name":"Onondaga","description":null,"feat_class":"Populated Place","feature_id":"23802","fips_class":"C1","fips_county_cd":"67","full_county_name":"Onondaga County","link_title":null,"url":"http:\/\/www.northsyracuse.org\/","name":"North Syracuse","primary_latitude":"43.13","primary_longitude":"-76.12","state_abbreviation":"NY","state_name":"New York"},{"county_name":"Saratoga","description":null,"feat_class":"Populated Place","feature_id":"24058","fips_class":"C5","fips_county_cd":"91","full_county_name":"Saratoga County","link_title":null,"url":"http:\/\/www.saratoga-springs.org\/","name":"Saratoga Springs","primary_latitude":"43.08","primary_longitude":"-73.78","state_abbreviation":"NY","state_name":"New York"},{"county_name":"Greene","description":null,"feat_class":"Populated Place","feature_id":"23036","fips_class":"C1","fips_county_cd":"39","full_county_name":"Greene County","link_title":null,"url":"http:\/\/www.villageofcatskill.net\/","name":"Catskill","primary_latitude":"42.21","primary_longitude":"-73.86","state_abbreviation":"NY","state_name":"New York"},{"county_name":"Tompkins","description":null,"feat_class":"Populated Place","feature_id":"23548","fips_class":"C1","fips_county_cd":"109","full_county_name":"Tompkins County","link_title":null,"url":"http:\/\/www.vlansing.org\/","name":"Lansing","primary_latitude":"42.48","primary_longitude":"-76.47","state_abbreviation":"NY","state_name":"New York"},{"county_name":"Ulster","description":null,"feat_class":"Populated Place","feature_id":"24060","fips_class":"C1","fips_county_cd":"111","full_county_name":"Ulster County","link_title":null,"url":"http:\/\/www.saugerties.ny.us","name":"Saugerties","primary_latitude":"42.07","primary_longitude":"-73.95","state_abbreviation":"NY","state_name":"New York"},{"county_name":"Westchester","description":null,"feat_class":"Populated Place","feature_id":"23550","fips_class":"C1","fips_county_cd":"119","full_county_name":"Westchester County","link_title":null,"url":"http:\/\/www.ci.larchmont.ny.us\/","name":"Larchmont","primary_latitude":"40.92","primary_longitude":"-73.75","state_abbreviation":"NY","state_name":"New York"},{"county_name":"Cayuga","description":null,"feat_class":"Populated Place","feature_id":"23039","fips_class":"C1","fips_county_cd":"11","full_county_name":"Cayuga County","link_title":null,"url":"http:\/\/co.cayuga.ny.us\/cayugavil\/","name":"Cayuga","primary_latitude":"42.91","primary_longitude":"-76.72","state_abbreviation":"NY","state_name":"New York"},{"county_name":"Seneca","description":null,"feat_class":"Populated Place","feature_id":"23334","fips_class":"C5","fips_county_cd":"99","full_county_name":"Seneca County","link_title":null,"url":"http:\/\/www.geneva.ny.us\/","name":"Geneva","primary_latitude":"42.86","primary_longitude":"-76.97","state_abbreviation":"NY","state_name":"New York"},{"county_name":"Bronx","description":null,"feat_class":"Populated Place","feature_id":"23762","fips_class":"C1","fips_county_cd":"5","full_county_name":"Bronx County","link_title":null,"url":"http:\/\/www.nyc.gov\/","name":"New York","primary_latitude":"40.71","primary_longitude":"-74","state_abbreviation":"NY","state_name":"New York"},{"county_name":"Richmond","description":null,"feat_class":"Populated Place","feature_id":"23766","fips_class":"C1","fips_county_cd":"85","full_county_name":"Richmond County","link_title":null,"url":"http:\/\/www.nyc.gov\/","name":"New York","primary_latitude":"40.71","primary_longitude":"-74","state_abbreviation":"NY","state_name":"New York"},{"county_name":"Kings","description":null,"feat_class":"Populated Place","feature_id":"23763","fips_class":"C1","fips_county_cd":"47","full_county_name":"Kings County","link_title":null,"url":"http:\/\/www.nyc.gov\/","name":"New York","primary_latitude":"40.71","primary_longitude":"-74","state_abbreviation":"NY","state_name":"New York"},{"county_name":"Queens","description":null,"feat_class":"Populated Place","feature_id":"23765","fips_class":"C1","fips_county_cd":"81","full_county_name":"Queens County","link_title":null,"url":"http:\/\/www.nyc.gov\/","name":"New York","primary_latitude":"40.71","primary_longitude":"-74","state_abbreviation":"NY","state_name":"New York"}]