[{"county_name":"Fillmore","description":null,"feat_class":"Populated Place","feature_id":"21249","fips_class":"C1","fips_county_cd":"59","full_county_name":"Fillmore County","link_title":null,"url":"http:\/\/www.ci.geneva.ne.us\/","name":"Geneva","primary_latitude":"40.52","primary_longitude":"-97.59","state_abbreviation":"NE","state_name":"Nebraska"},{"county_name":"Scotts Bluff","description":null,"feat_class":"Populated Place","feature_id":"21253","fips_class":"C5","fips_county_cd":"157","full_county_name":"Scotts Bluff County","link_title":null,"url":"http:\/\/www.gering.org\/","name":"Gering","primary_latitude":"41.82","primary_longitude":"-103.66","state_abbreviation":"NE","state_name":"Nebraska"},{"county_name":"Clay","description":null,"feat_class":"Populated Place","feature_id":"21765","fips_class":"C5","fips_county_cd":"35","full_county_name":"Clay County","link_title":null,"url":"http:\/\/www.cityofsutton.org\/","name":"Sutton","primary_latitude":"40.6","primary_longitude":"-97.85","state_abbreviation":"NE","state_name":"Nebraska"},{"county_name":"Dawson","description":null,"feat_class":"Populated Place","feature_id":"21265","fips_class":"C5","fips_county_cd":"47","full_county_name":"Dawson County","link_title":null,"url":"http:\/\/www.ci.gothenburg.ne.us\/","name":"Gothenburg","primary_latitude":"40.92","primary_longitude":"-100.16","state_abbreviation":"NE","state_name":"Nebraska"},{"county_name":"Hall","description":null,"feat_class":"Populated Place","feature_id":"21269","fips_class":"C5","fips_county_cd":"79","full_county_name":"Hall County","link_title":null,"url":"http:\/\/www.grand-island.com\/","name":"Grand Island","primary_latitude":"40.92","primary_longitude":"-98.34","state_abbreviation":"NE","state_name":"Nebraska"},{"county_name":"Madison","description":null,"feat_class":"Populated Place","feature_id":"21532","fips_class":"C5","fips_county_cd":"119","full_county_name":"Madison County","link_title":null,"url":"http:\/\/www.ci.norfolk.ne.us\/","name":"Norfolk","primary_latitude":"42.02","primary_longitude":"-97.41","state_abbreviation":"NE","state_name":"Nebraska"},{"county_name":"Lincoln","description":null,"feat_class":"Populated Place","feature_id":"21540","fips_class":"C1","fips_county_cd":"111","full_county_name":"Lincoln County","link_title":null,"url":"http:\/\/www.ci.north-platte.ne.us\/","name":"North Platte","primary_latitude":"41.12","primary_longitude":"-100.76","state_abbreviation":"NE","state_name":"Nebraska"},{"county_name":"Cass","description":null,"feat_class":"Populated Place","feature_id":"21796","fips_class":"C1","fips_county_cd":"25","full_county_name":"Cass County","link_title":null,"url":"http:\/\/www.unionnebraska.com\/","name":"Union","primary_latitude":"40.81","primary_longitude":"-95.92","state_abbreviation":"NE","state_name":"Nebraska"},{"county_name":"Sarpy","description":null,"feat_class":"Populated Place","feature_id":"21286","fips_class":"C1","fips_county_cd":"153","full_county_name":"Sarpy County","link_title":null,"url":"http:\/\/www.gretnane.org\/","name":"Gretna","primary_latitude":"41.14","primary_longitude":"-96.23","state_abbreviation":"NE","state_name":"Nebraska"},{"county_name":"Cass","description":null,"feat_class":"Populated Place","feature_id":"21035","fips_class":"C1","fips_county_cd":"25","full_county_name":"Cass County","link_title":null,"url":"http:\/\/www.cedarcreeknebraska.com\/","name":"Cedar Creek","primary_latitude":"41.03","primary_longitude":"-96.09","state_abbreviation":"NE","state_name":"Nebraska"},{"county_name":"Douglas","description":null,"feat_class":"Populated Place","feature_id":"21805","fips_class":"C1","fips_county_cd":"55","full_county_name":"Douglas County","link_title":null,"url":"http:\/\/www.valleyne.org\/","name":"Valley","primary_latitude":"41.31","primary_longitude":"-96.34","state_abbreviation":"NE","state_name":"Nebraska"},{"county_name":"Keith","description":null,"feat_class":"Populated Place","feature_id":"21554","fips_class":"C5","fips_county_cd":"101","full_county_name":"Keith County","link_title":null,"url":"http:\/\/www.ogallala-ne.gov\/","name":"Ogallala","primary_latitude":"41.12","primary_longitude":"-101.71","state_abbreviation":"NE","state_name":"Nebraska"},{"county_name":"Douglas","description":null,"feat_class":"Populated Place","feature_id":"21557","fips_class":"C5","fips_county_cd":"55","full_county_name":"Douglas County","link_title":null,"url":"http:\/\/www.ci.omaha.ne.us\/","name":"Omaha","primary_latitude":"41.25","primary_longitude":"-95.93","state_abbreviation":"NE","state_name":"Nebraska"},{"county_name":"Adams","description":null,"feat_class":"Populated Place","feature_id":"21310","fips_class":"C5","fips_county_cd":"1","full_county_name":"Adams County","link_title":null,"url":"http:\/\/www.cityofhastings.org\/","name":"Hastings","primary_latitude":"40.58","primary_longitude":"-98.38","state_abbreviation":"NE","state_name":"Nebraska"},{"county_name":"Garden","description":null,"feat_class":"Populated Place","feature_id":"21569","fips_class":"C1","fips_county_cd":"69","full_county_name":"Garden County","link_title":null,"url":"http:\/\/www.ci.oshkosh.ne.us\/","name":"Oshkosh","primary_latitude":"41.4","primary_longitude":"-102.34","state_abbreviation":"NE","state_name":"Nebraska"},{"county_name":"York","description":null,"feat_class":"Populated Place","feature_id":"21319","fips_class":"C1","fips_county_cd":"185","full_county_name":"York County","link_title":null,"url":"http:\/\/www.cityofhenderson.org\/","name":"Henderson","primary_latitude":"40.77","primary_longitude":"-97.81","state_abbreviation":"NE","state_name":"Nebraska"},{"county_name":"Sarpy","description":null,"feat_class":"Populated Place","feature_id":"21583","fips_class":"C1","fips_county_cd":"153","full_county_name":"Sarpy County","link_title":null,"url":"http:\/\/www.papillion.org\/","name":"Papillion","primary_latitude":"41.15","primary_longitude":"-96.04","state_abbreviation":"NE","state_name":"Nebraska"},{"county_name":"Wayne","description":null,"feat_class":"Populated Place","feature_id":"21840","fips_class":"C1","fips_county_cd":"179","full_county_name":"Wayne County","link_title":null,"url":"http:\/\/www.cityofwayne.org\/","name":"Wayne","primary_latitude":"42.23","primary_longitude":"-97.01","state_abbreviation":"NE","state_name":"Nebraska"},{"county_name":"Cass","description":null,"feat_class":"Populated Place","feature_id":"21843","fips_class":"C5","fips_county_cd":"25","full_county_name":"Cass County","link_title":null,"url":"http:\/\/www.weepingwaternebraska.com\/","name":"Weeping Water","primary_latitude":"40.87","primary_longitude":"-96.14","state_abbreviation":"NE","state_name":"Nebraska"},{"county_name":"Phelps","description":null,"feat_class":"Populated Place","feature_id":"21333","fips_class":"C5","fips_county_cd":"137","full_county_name":"Phelps County","link_title":null,"url":"http:\/\/www.holdrege.org\/","name":"Holdrege","primary_latitude":"40.44","primary_longitude":"-99.36","state_abbreviation":"NE","state_name":"Nebraska"},{"county_name":"Cuming","description":null,"feat_class":"Populated Place","feature_id":"21848","fips_class":"C5","fips_county_cd":"39","full_county_name":"Cuming County","link_title":null,"url":"http:\/\/www.ci.west-point.ne.us\/","name":"West Point","primary_latitude":"41.84","primary_longitude":"-96.7","state_abbreviation":"NE","state_name":"Nebraska"},{"county_name":"Chase","description":null,"feat_class":"Populated Place","feature_id":"21352","fips_class":"C1","fips_county_cd":"29","full_county_name":"Chase County","link_title":null,"url":"http:\/\/www.imperial-ne.com\/","name":"Imperial","primary_latitude":"40.51","primary_longitude":"-101.64","state_abbreviation":"NE","state_name":"Nebraska"},{"county_name":"Knox","description":null,"feat_class":"Populated Place","feature_id":"21108","fips_class":"C5","fips_county_cd":"107","full_county_name":"Knox County","link_title":null,"url":"http:\/\/www.creighton.org\/","name":"Creighton","primary_latitude":"42.46","primary_longitude":"-97.9","state_abbreviation":"NE","state_name":"Nebraska"},{"county_name":"Saline","description":null,"feat_class":"Populated Place","feature_id":"21112","fips_class":"C5","fips_county_cd":"151","full_county_name":"Saline County","link_title":null,"url":"http:\/\/www.crete-ne.com\/","name":"Crete","primary_latitude":"40.62","primary_longitude":"-96.96","state_abbreviation":"NE","state_name":"Nebraska"},{"county_name":"York","description":null,"feat_class":"Populated Place","feature_id":"21880","fips_class":"C5","fips_county_cd":"185","full_county_name":"York County","link_title":null,"url":"http:\/\/www.ci.york.ne.us\/","name":"York","primary_latitude":"40.86","primary_longitude":"-97.59","state_abbreviation":"NE","state_name":"Nebraska"},{"county_name":"Douglas","description":null,"feat_class":"Populated Place","feature_id":"21627","fips_class":"C1","fips_county_cd":"55","full_county_name":"Douglas County","link_title":null,"url":"http:\/\/www.cityofralston.com\/","name":"Ralston","primary_latitude":"41.2","primary_longitude":"-96.04","state_abbreviation":"NE","state_name":"Nebraska"},{"county_name":"Buffalo","description":null,"feat_class":"Populated Place","feature_id":"21373","fips_class":"C5","fips_county_cd":"19","full_county_name":"Buffalo County","link_title":null,"url":"http:\/\/www.cityofkearney.org\/","name":"Kearney","primary_latitude":"40.69","primary_longitude":"-99.08","state_abbreviation":"NE","state_name":"Nebraska"},{"county_name":"Kimball","description":null,"feat_class":"Populated Place","feature_id":"21379","fips_class":"C1","fips_county_cd":"105","full_county_name":"Kimball County","link_title":null,"url":"http:\/\/www.ci.kimball.ne.us\/","name":"Kimball","primary_latitude":"41.23","primary_longitude":"-103.66","state_abbreviation":"NE","state_name":"Nebraska"},{"county_name":"Lancaster","description":null,"feat_class":"Populated Place","feature_id":"21402","fips_class":"C5","fips_county_cd":"109","full_county_name":"Lancaster County","link_title":null,"url":"http:\/\/www.lincoln.ne.gov\/","name":"Lincoln","primary_latitude":"40.8","primary_longitude":"-96.66","state_abbreviation":"NE","state_name":"Nebraska"},{"county_name":"Box Butte","description":null,"feat_class":"Populated Place","feature_id":"20901","fips_class":"C1","fips_county_cd":"13","full_county_name":"Box Butte County","link_title":null,"url":"http:\/\/www.cityofalliance.net\/","name":"Alliance","primary_latitude":"42.1","primary_longitude":"-102.87","state_abbreviation":"NE","state_name":"Nebraska"},{"county_name":"Harlan","description":null,"feat_class":"Populated Place","feature_id":"20902","fips_class":"C5","fips_county_cd":"83","full_county_name":"Harlan County","link_title":null,"url":"http:\/\/www.almacity.com\/","name":"Alma","primary_latitude":"40.09","primary_longitude":"-99.36","state_abbreviation":"NE","state_name":"Nebraska"},{"county_name":"Cass","description":null,"feat_class":"Populated Place","feature_id":"21432","fips_class":"C1","fips_county_cd":"25","full_county_name":"Cass County","link_title":null,"url":"http:\/\/www.louisvillenebraska.com\/","name":"Louisville","primary_latitude":"40.99","primary_longitude":"-96.16","state_abbreviation":"NE","state_name":"Nebraska"},{"county_name":"Scotts Bluff","description":null,"feat_class":"Populated Place","feature_id":"21689","fips_class":"C5","fips_county_cd":"157","full_county_name":"Scotts Bluff County","link_title":null,"url":"http:\/\/www.ci.scottsbluff.ne.us\/","name":"Scottsbluff","primary_latitude":"41.86","primary_longitude":"-103.66","state_abbreviation":"NE","state_name":"Nebraska"},{"county_name":"Seward","description":null,"feat_class":"Populated Place","feature_id":"21692","fips_class":"C5","fips_county_cd":"159","full_county_name":"Seward County","link_title":null,"url":"http:\/\/www.cityofsewardne.com\/","name":"Seward","primary_latitude":"40.9","primary_longitude":"-97.09","state_abbreviation":"NE","state_name":"Nebraska"},{"county_name":"Douglas","description":null,"feat_class":"Populated Place","feature_id":"21183","fips_class":"C1","fips_county_cd":"55","full_county_name":"Douglas County","link_title":null,"url":"http:\/\/www.elkhorncity.net\/","name":"Elkhorn","primary_latitude":"41.28","primary_longitude":"-96.23","state_abbreviation":"NE","state_name":"Nebraska"},{"county_name":"Hamilton","description":null,"feat_class":"Populated Place","feature_id":"20933","fips_class":"C1","fips_county_cd":"81","full_county_name":"Hamilton County","link_title":null,"url":"http:\/\/www.cityofaurora.org\/","name":"Aurora","primary_latitude":"40.86","primary_longitude":"-98","state_abbreviation":"NE","state_name":"Nebraska"},{"county_name":"Gage","description":null,"feat_class":"Populated Place","feature_id":"20951","fips_class":"C5","fips_county_cd":"67","full_county_name":"Gage County","link_title":null,"url":"http:\/\/www.beatrice.ne.gov\/","name":"Beatrice","primary_latitude":"40.26","primary_longitude":"-96.74","state_abbreviation":"NE","state_name":"Nebraska"},{"county_name":"Cass","description":null,"feat_class":"Populated Place","feature_id":"21722","fips_class":"C1","fips_county_cd":"25","full_county_name":"Cass County","link_title":null,"url":"http:\/\/www.southbendnebraska.com\/","name":"South Bend","primary_latitude":"41","primary_longitude":"-96.24","state_abbreviation":"NE","state_name":"Nebraska"},{"county_name":"Dakota","description":null,"feat_class":"Populated Place","feature_id":"21727","fips_class":"C5","fips_county_cd":"43","full_county_name":"Dakota County","link_title":null,"url":"http:\/\/www.cityofsouthsiouxcity.org\/","name":"South Sioux City","primary_latitude":"42.47","primary_longitude":"-96.41","state_abbreviation":"NE","state_name":"Nebraska"},{"county_name":"Richardson","description":null,"feat_class":"Populated Place","feature_id":"21216","fips_class":"C5","fips_county_cd":"147","full_county_name":"Richardson County","link_title":null,"url":"http:\/\/www.fallscityonline.com\/","name":"Falls City","primary_latitude":"40.06","primary_longitude":"-95.6","state_abbreviation":"NE","state_name":"Nebraska"},{"county_name":"Sarpy","description":null,"feat_class":"Populated Place","feature_id":"20964","fips_class":"C1","fips_county_cd":"153","full_county_name":"Sarpy County","link_title":null,"url":"http:\/\/www.bellevue.net\/","name":"Bellevue","primary_latitude":"41.13","primary_longitude":"-95.89","state_abbreviation":"NE","state_name":"Nebraska"},{"county_name":"Dundy","description":null,"feat_class":"Populated Place","feature_id":"20968","fips_class":"C1","fips_county_cd":"57","full_county_name":"Dundy County","link_title":null,"url":"http:\/\/www.bwtelcom.net\/dcccd\/","name":"Benkelman","primary_latitude":"40.04","primary_longitude":"-101.53","state_abbreviation":"NE","state_name":"Nebraska"},{"county_name":"Washington","description":null,"feat_class":"Populated Place","feature_id":"21225","fips_class":"C1","fips_county_cd":"177","full_county_name":"Washington County","link_title":null,"url":"http:\/\/www.fortcalhoun.org\/","name":"Fort Calhoun","primary_latitude":"41.45","primary_longitude":"-96.02","state_abbreviation":"NE","state_name":"Nebraska"},{"county_name":"Sarpy","description":null,"feat_class":"Populated Place","feature_id":"21738","fips_class":"C1","fips_county_cd":"153","full_county_name":"Sarpy County","link_title":null,"url":"http:\/\/www.springfieldnebraska.com\/","name":"Springfield","primary_latitude":"41.08","primary_longitude":"-96.13","state_abbreviation":"NE","state_name":"Nebraska"},{"county_name":"Dodge","description":null,"feat_class":"Populated Place","feature_id":"21233","fips_class":"C5","fips_county_cd":"53","full_county_name":"Dodge County","link_title":null,"url":"http:\/\/www.connectfremont.org\/","name":"Fremont","primary_latitude":"41.43","primary_longitude":"-96.49","state_abbreviation":"NE","state_name":"Nebraska"},{"county_name":"Washington","description":null,"feat_class":"Populated Place","feature_id":"20984","fips_class":"C5","fips_county_cd":"177","full_county_name":"Washington County","link_title":null,"url":"http:\/\/www.blairnebraska.org\/","name":"Blair","primary_latitude":"41.54","primary_longitude":"-96.12","state_abbreviation":"NE","state_name":"Nebraska"},{"county_name":"Knox","description":null,"feat_class":"Populated Place","feature_id":"20986","fips_class":"C5","fips_county_cd":"107","full_county_name":"Knox County","link_title":null,"url":"http:\/\/www.ci.bloomfield.ne.us\/","name":"Bloomfield","primary_latitude":"42.59","primary_longitude":"-97.64","state_abbreviation":"NE","state_name":"Nebraska"}]